     2.10           OBSERVATION DATA    G (GPS)             RINEX VERSION / TYPE
goGPS                                                       PGM / RUN BY / DATE 
EPS1                                                        MARKER NAME         
                                                            OBSERVER / AGENCY   
                    u-blox                                  REC # / TYPE / VERS 
                                                            ANT # / TYPE        
  5036339.5525  -332565.7115  3887151.5386                  APPROX POSITION XYZ 
        0.0000        0.0000        0.0000                  ANTENNA: DELTA H/E/N
     2     0                                                WAVELENGTH FACT L1/2
     4    C1    L1    S1    D1                              # / TYPES OF OBSERV 
  2012    12    12    12    12   11.9990005     GPS         TIME OF FIRST OBS   
                                                            END OF HEADER       
 12 12 12 12 12 11.9990005  0 12G01G03G06G11G14G17G19G20G22G23G28G32
  20407038.285 7  -2696238.20907        47.000 7      2026.141 7
  23178476.980 7   2731344.58507        46.000 7     -2393.823 7
  24414163.893 5   2557989.00705        33.000 5     -2205.113 5
  19925347.849 7  -1778000.47007        45.000 7      1191.511 7
  23332595.314 7   -595019.10007        45.000 7        93.591 7
  25631315.742 4   -620953.05434        27.000 4      4712.036 4
  21347889.529 7    924411.23207        46.000 7     -1046.338 7
  21126494.411 7  -4706954.11907        45.000 7      3574.438 7
  24865930.695 7   2440698.99507        44.000 7     -2046.899 7
  25054312.758 5  -2388196.01705        34.000 5      4609.232 5
  23132441.159 7  -2995101.63607        46.000 7      2073.850 7
  20027615.042 7  -2429314.28207        46.000 7      1588.231 7
 12 12 12 12 12 12.9990005  0 12G01G03G06G11G14G17G19G20G22G23G28G32
  20406653.158 7  -2698264.71807        47.000 7      2025.688 7
  23178932.099 7   2733738.19107        46.000 7     -2394.519 7
  24414583.204 5   2560194.26005        32.000 5     -2205.960 5
  19925121.031 7  -1779192.03407        45.000 7      1190.455 7
  23332577.863 7   -595112.87707        45.000 7        92.805 7
  25630419.063 4   -625665.29134        27.000 4      4711.867 4
  21348088.514 7    925456.87607        46.000 7     -1047.117 7
  21125814.498 7  -4710529.09507        45.000 7      3573.681 7
  24866319.922 7   2442745.35007        44.000 7     -2047.166 7
  25053435.448 5  -2392805.73905        34.000 5      4609.412 5
  23132047.133 7  -2997175.52707        46.000 7      2072.604 7
  20027312.717 7  -2430902.33307        46.000 7      1586.978 7
 12 12 12 12 12 13.9990005  0 12G01G03G06G11G14G17G19G20G22G23G28G32
  20406267.753 7  -2700291.08307        47.000 7      2026.331 7
  23179387.881 7   2736131.88107        46.000 7     -2393.736 7
  24415002.515 5   2562399.61405        33.000 5     -2203.791 5
  19924894.318 7  -1780383.30307        45.000 7      1191.571 7
  23332559.820 7   -595206.17407        45.000 7        93.030 7
  25629522.942 4   -630377.55634        27.000 4      4712.364 4
  21348287.551 7    926502.82407        46.000 7     -1045.938 7
  21125134.585 7  -4714103.75807        45.000 7      3575.263 7
  24866709.149 7   2444791.62907        44.000 7     -2046.250 7
  25052558.156 5  -2397415.64305        34.000 5      4611.008 5
  23131652.374 7  -2999248.93207        46.000 7      2073.388 7
  20027010.182 7  -2432489.88407        46.000 7      1587.254 7
 12 12 12 12 12 14.9990005  0 12G01G03G06G11G14G17G19G20G22G23G28G32
  20405882.208 7  -2702317.75807        47.000 7      2027.112 7
  23179843.018 7   2738525.19007        46.000 7     -2392.501 7
  24415422.507 5   2564604.44905        33.000 5     -2205.245 5
  19924667.622 7  -1781574.75507        45.000 7      1191.656 7
  23332541.689 7   -595299.43807        45.000 7        93.797 7
  25628626.245 4   -635090.50434        27.000 4      4714.634 4
  21348486.309 7    927548.63707        46.000 7     -1045.512 7
  21124454.376 7  -4717678.59407        45.000 7      3575.070 7
  24867099.388 7   2446837.31107        44.000 7     -2045.175 7
  25051680.585 5  -2402026.29905        35.000 5      4610.701 5
  23131257.755 7  -3001322.32807        46.000 7      2073.443 7
  20026707.875 7  -2434077.38907        46.000 7      1587.952 7
 12 12 12 12 12 15.9990005  0 12G01G03G06G11G14G17G19G20G22G23G28G32
  20405496.628 7  -2704344.60007        47.000 7      2027.070 7
  23180298.015 7   2740918.27007        46.000 7     -2392.604 7
  24415841.661 5   2566809.03605        32.000 5     -2204.491 5
  19924441.467 7  -1782766.22207        45.000 7      1191.951 7
  23332524.047 7   -595392.54207        44.000 7        93.567 7
  25627729.653 4   -639803.98034        27.000 4      4712.590 4
  21348685.695 7    928594.45207        46.000 7     -1045.358 7
  21123774.254 7  -4721253.39807        45.000 7      3575.295 7
  24867487.673 7   2448882.63107        44.000 7     -2044.886 7
  25050803.240 5  -2406637.49605        35.000 5      4611.643 5
  23130863.014 7  -3003395.55207        46.000 7      2073.387 7
  20026405.654 7  -2435664.71607        46.000 7      1587.567 7
 12 12 12 12 12 16.9990005  0 12G01G03G06G11G14G17G19G20G22G23G28G32
  20405111.135 7  -2706370.78007        47.000 7      2026.275 7
  23180753.972 7   2743311.95207        46.000 7     -2393.423 7
  24416261.130 5   2569014.09705        32.000 5     -2204.201 5
  19924214.614 7  -1783956.89007        45.000 7      1190.917 7
  23332506.702 7   -595484.65007        44.000 7        91.615 7
  25626832.851 4   -644516.96034        27.000 4      4713.407 4
  21348884.226 7    929641.08207        46.000 7     -1046.447 7
  21123094.132 7  -4724827.38707        45.000 7      3574.158 7
  24867876.708 7   2450928.36607        44.000 7     -2045.252 7
  25049926.384 5  -2411247.85235        34.000 5      4611.623 5
  23130469.128 7  -3005467.78807        46.000 7      2071.850 7
  20026103.644 7  -2437251.02007        46.000 7      1586.345 7
 12 12 12 12 12 17.9990005  0 12G01G03G06G11G14G17G19G20G22G23G28G32
  20404725.677 7  -2708396.10507        47.000 7      2025.090 7
  23181209.300 7   2745706.41807        46.000 7     -2394.865 7
  24416680.982 5   2571219.96305        32.000 5     -2205.359 5
  19923988.006 7  -1785146.56007        45.000 7      1188.804 7
  23332489.059 7   -595575.54507        44.000 7        90.189 7
  25625937.219 4   -649229.50534        28.000 4      4711.956 4
  21349083.665 7    930688.74007        46.000 7     -1048.404 7
  21122414.411 7  -4728400.34007        45.000 7      3572.407 7
  24868266.075 7   2452974.72807        44.000 7     -2046.156 7
  25049049.092 5  -2415858.26725        34.000 5      4608.437 5
  23130074.927 7  -3007538.82607        46.000 7      2070.778 7
  20025801.894 7  -2438836.13007        46.000 7      1584.435 7
 12 12 12 12 12 18.9990005  0 12G01G03G06G11G14G17G19G20G22G23G28G32
  20404340.132 7  -2710421.42607        47.000 7      2025.517 7
  23181665.117 7   2748100.84207        46.000 7     -2394.316 7
  24417100.572 5   2573425.62005        32.000 5     -2202.814 5
  19923761.868 7  -1786336.09207        45.000 7      1189.955 7
  23332472.080 7   -595666.12407        45.000 7        90.635 7
  25625040.574 4   -653942.19334        28.000 4      4713.654 4
  21349282.615 7    931736.55107        46.000 7     -1047.625 7
  21121735.021 7  -4731973.12907        46.000 7      3572.879 7
  24868655.826 7   2455020.83207        44.000 7     -2045.511 7
  25048171.730 5  -2420469.09025        34.000 5      4610.153 5
  23129680.727 7  -3009609.56207        46.000 7      2070.923 7
  20025500.756 7  -2440420.88707        46.000 7      1585.143 7
 12 12 12 12 12 19.9990005  0 12G01G03G06G11G14G17G19G20G22G23G28G32
  20403955.006 7  -2712446.82807        47.000 7      2025.152 7
  23182120.585 7   2750495.09607        46.000 7     -2394.219 7
  24417520.826 5   2575631.05705        32.000 5     -2203.678 5
  19923535.731 7  -1787525.56407        45.000 7      1188.974 7
  23332455.311 7   -595756.43907        45.000 7        90.039 7
  25624141.085 4   -658655.34534        29.000 4      4713.784 4
  21349482.158 7    932784.45507        46.000 7     -1047.548 7
  21121055.161 7  -4735545.82107        46.000 7      3572.970 7
  24869045.000 7   2457066.63407        44.000 7     -2045.269 7
  25047294.263 5  -2425080.32525        34.000 5      4610.321 5
  23129286.753 7  -3011680.02507        46.000 7      2070.527 7
  20025199.112 7  -2442005.35307        46.000 7      1584.394 7
 12 12 12 12 12 20.9990005  0 12G01G03G06G11G14G17G19G20G22G23G28G32
  20403569.879 7  -2714471.60607        47.000 7      2024.962 7
  23182576.246 7   2752889.92207        46.000 7     -2394.421 7
  24417940.713 5   2577836.97205        31.000 5     -2206.975 5
  19923309.576 7  -1788714.25007        45.000 7      1188.783 7
  23332438.471 7   -595845.78607        45.000 7        88.922 7
  25623246.064 4   -663368.13834        29.000 4      4712.979 4
  21349681.492 7    933833.16107        46.000 7     -1048.516 7
  21120375.649 7  -4739117.72307        46.000 7      3571.548 7
  24869434.716 7   2459112.81407        44.000 7     -2045.914 7
  25046416.849 5  -2429691.34125        34.000 5      4610.750 5
  23128892.884 7  -3013749.52407        46.000 7      2069.814 7
  20024897.642 7  -2443588.86207        46.000 7      1583.227 7
 12 12 12 12 12 21.9990005  0 12G01G03G06G11G14G17G19G20G22G23G28G32
  20403184.893 7  -2716496.04907        47.000 7      2024.673 7
  23183031.853 7   2755285.01607        46.000 7     -2395.244 7
  24418360.984 5   2580043.17505        31.000 5     -2204.899 5
  19923082.776 7  -1789902.47207        45.000 7      1187.931 7
  23332421.649 7   -595934.45707        45.000 7        88.601 7
  25622351.269 4   -668080.86034        29.000 4      4712.980 4
  21349881.489 7    934882.35607        46.000 7     -1049.148 7
  21119695.963 7  -4742689.12607        46.000 7      3571.303 7
  24869823.839 7   2461159.11607        44.000 7     -2046.364 7
  25045538.701 5  -2434302.37125        34.000 5      4610.705 5
  23128499.330 7  -3015818.36507        46.000 7      2068.307 7
  20024597.009 7  -2445171.65307        46.000 7      1582.637 7
 12 12 12 12 12 22.9990005  0 12G01G03G06G11G14G17G19G20G22G23G28G32
  20402799.679 7  -2718520.76007        47.000 7      2024.831 7
  23183487.688 7   2757679.78407        46.000 7     -2394.434 7
  24418780.173 5   2582248.89705        31.000 5     -2206.622 5
  19922856.534 7  -1791090.81107        45.000 7      1188.467 7
  23332405.019 7   -596023.05607        45.000 7        88.417 7
  25621453.473 4   -672794.14334        29.000 4      4713.429 4
  21350081.346 7    935931.43407        46.000 7     -1048.572 7
  21119015.911 7  -4746260.61707        45.000 7      3571.383 7
  24870213.223 7   2463204.88407        44.000 7     -2045.436 7
  25044661.339 5  -2438914.06125        34.000 5      4610.137 5
  23128105.705 7  -3017887.14507        46.000 7      2068.614 7
  20024295.644 7  -2446754.38507        46.000 7      1582.528 7
 12 12 12 12 12 23.9990005  0 12G01G03G06G11G14G17G19G20G22G23G28G32
  20402414.431 7  -2720545.38507        47.000 7      2024.479 7
  23183943.837 7   2760074.57207        46.000 7     -2394.777 7
  24419199.816 5   2584454.63305        31.000 5     -2204.160 5
  19922630.553 7  -1792278.91107        45.000 7      1187.806 7
  23332389.139 7   -596111.25307        45.000 7        87.558 7
  25620556.095 4   -677507.59634        29.000 4      4715.229 4
  21350280.820 7    936980.78207        46.000 7     -1049.367 7
  21118335.283 7  -4749831.84907        45.000 7      3570.858 7
  24870602.066 7   2465250.50707        44.000 7     -2045.028 7
  25043783.279 5  -2443526.00525        33.000 5      4611.488 5
  23127711.941 7  -3019955.48507        46.000 7      2067.917 7
  20023994.314 7  -2448336.66607        46.000 7      1582.175 7
 12 12 12 12 12 24.9990005  0 12G01G03G06G11G14G17G19G20G22G23G28G32
  20402029.217 7  -2722569.66207        47.000 7      2023.982 7
  23184399.392 7   2762469.64207        46.000 7     -2395.254 7
  24419619.878 5   2586660.52605        31.000 5     -2205.933 5
  19922404.468 7  -1793466.53107        45.000 7      1186.708 7
  23332372.789 7   -596198.73007        45.000 7        87.122 7
  25619659.102 4   -682221.14334        29.000 4      4712.606 4
  21350480.817 7    938030.62707        46.000 7     -1050.520 7
  21117655.422 7  -4753402.57607        45.000 7      3570.070 7
  24870990.700 7   2467296.24507        44.000 7     -2046.343 7
  25042905.464 5  -2448138.55305        33.000 5      4609.307 5
  23127318.229 7  -3022023.17707        46.000 7      2066.328 7
  20023693.228 7  -2449918.23707        46.000 7      1581.007 7
 12 12 12 12 12 25.9990005  0 12G01G03G06G11G14G17G19G20G22G23G28G32
  20401644.370 7  -2724593.54307        47.000 7      2024.436 7
  23184855.750 7   2764865.03907        46.000 7     -2395.178 7
  24420039.887 5   2588866.73535        31.000 5     -2204.873 5
  19922178.401 7  -1794653.59707        45.000 7      1187.793 7
  23332356.769 7   -596285.50507        45.000 7        87.224 7
  25618759.805 4   -686934.31634        29.000 4      4714.286 4
  21350680.779 7    939081.04207        46.000 7     -1049.551 7
  21116976.207 7  -4756972.72107        45.000 7      3570.660 7
  24871380.503 7   2469342.14507        44.000 7     -2044.951 7
  25042027.648 5  -2452750.46305        33.000 5      4612.837 5
  23126924.273 7  -3024090.11707        46.000 7      2067.150 7
  20023392.351 7  -2451499.06307        46.000 7      1581.404 7
 12 12 12 12 12 26.9990005  0 12G01G03G06G11G14G17G19G20G22G23G28G32
  20401259.191 7  -2726617.43807        47.000 7      2022.554 7
  23185311.393 7   2767260.35407        46.000 7     -2396.690 7
  24420459.669 5   2591072.70425        31.000 5     -2208.175 5
  19921952.577 7  -1795840.54407        44.000 7      1185.357 7
  23332340.279 7   -596371.93707        45.000 7        84.989 7
  25617862.968 4   -691648.04134        29.000 4      4713.022 4
  21350880.688 7    940131.60007        46.000 7     -1052.234 7
  21116296.661 7  -4760542.71607        45.000 7      3568.516 7
  24871769.590 7   2471387.78107        44.000 7     -2047.134 7
  25041149.815 5  -2457362.86605        33.000 5      4611.971 5
  23126531.434 7  -3026156.74907        46.000 7      2065.257 7
  20023091.527 7  -2453079.57707        46.000 7      1578.894 7
 12 12 12 12 12 27.9990005  0 12G01G03G06G11G14G17G19G20G22G23G28G32
  20400874.239 7  -2728640.61307        47.000 7      2023.186 7
  23185767.157 7   2769656.31807        46.000 7     -2396.103 7
  24420879.277 5   2593279.26925        30.000 5     -2208.034 5
  19921726.911 7  -1797026.63207        44.000 7      1186.124 7
  23332323.928 7   -596457.32207        45.000 7        85.642 7
  25616964.701 4   -696361.20934        29.000 4      4712.653 4
  21351080.825 7    941183.03807        46.000 7     -1051.277 7
  21115617.429 7  -4764111.82107        45.000 7      3569.301 7
  24872159.288 7   2473433.90007        44.000 7     -2045.975 7
  25040271.789 5  -2461974.94505        33.000 5      4611.829 5
  23126138.123 7  -3028222.33507        45.000 7      2065.372 7
  20022791.156 7  -2454659.02107        46.000 7      1579.310 7
 12 12 12 12 12 28.9990005  0 12G01G03G06G11G14G17G19G20G22G23G28G32
  20400489.323 7  -2730663.17307        47.000 7      2022.443 7
  23186223.114 7   2772052.84307        46.000 7     -2396.701 7
  24421298.955 5   2595486.43325        30.000 5     -2206.694 5
  19921501.367 7  -1798211.96007        44.000 7      1184.928 7
  23332307.961 7   -596541.76307        45.000 7        84.063 7
  25616069.854 4   -701074.01134        29.000 4      4713.188 4
  21351281.223 7    942235.25507        46.000 7     -1052.456 7
  21114938.109 7  -4767680.16007        45.000 7      3567.673 7
  24872548.306 7   2475480.40307        44.000 7     -2045.960 7
  25039393.398 5  -2466586.67905        33.000 5      4614.030 5
  23125745.109 7  -3030286.97407        45.000 7      2064.324 7
  20022490.838 7  -2456237.49607        46.000 7      1578.213 7
 12 12 12 12 12 29.9990005  0 12G01G03G06G11G14G17G19G20G22G23G28G32
  20400104.284 7  -2732685.53307        47.000 7      2022.941 7
  23186679.507 7   2774449.49107        46.000 7     -2396.456 7
  24421719.121 5   2597693.57935        30.000 5     -2206.695 5
  19921275.526 7  -1799396.94507        44.000 7      1185.148 7
  23332291.471 7   -596625.66807        45.000 7        83.931 7
  25615172.755 4   -705787.00434        29.000 4      4712.992 4
  21351481.639 7    943287.84507        46.000 7     -1052.872 7
  21114258.580 7  -4771248.12207        45.000 7      3568.171 7
  24872937.551 7   2477526.85507        44.000 7     -2046.247 7
  25038515.285 5  -2471198.09135        33.000 5      4615.330 5
  23125352.462 7  -3032351.09407        46.000 7      2064.057 7
  20022190.502 7  -2457815.41907        46.000 7      1577.715 7
 12 12 12 12 12 30.9990005  0 12G01G03G06G11G14G17G19G20G22G23G28G32
  20399719.785 7  -2734707.78307        47.000 7      2022.161 7
  23187135.464 7   2776846.19507        46.000 7     -2396.701 7
  24422139.253 5   2599900.70225        30.000 5     -2206.266 5
  19921050.366 7  -1800581.66407        44.000 7      1184.950 7
  23332275.538 7   -596709.10907        45.000 7        83.252 7
  25614276.268 4   -710500.08334        29.000 4      4713.324 4
  21351681.950 7    944340.70007        47.000 7     -1053.119 7
  21113579.697 7  -4774815.79707        45.000 7      3567.300 7
  24873327.790 7   2479573.17907        44.000 7     -2046.721 7
  25037636.841 5  -2475810.38735        33.000 5      4611.523 5
  23124959.535 7  -3034414.74807        46.000 7      2063.610 7
  20021890.254 7  -2459392.86507        46.000 7      1576.811 7
 12 12 12 12 12 31.9990005  0 12G01G03G06G11G14G17G19G20G22G23G28G32
  20399335.130 7  -2736729.37507        47.000 7      2021.389 7
  23187591.996 7   2779243.50607        46.000 7     -2397.427 7
  24422559.018 5   2602108.39825        30.000 5     -2206.960 5
  19920825.293 7  -1801765.59507        44.000 7      1183.847 7
  23332259.327 7   -596791.56407        45.000 7        81.957 7
  25613379.571 5   -715212.83335        30.000 5      4714.275 5
  21351882.732 7    945394.38807        47.000 7     -1054.041 7
  21112900.709 7  -4778382.64507        45.000 7      3565.920 7
  24873716.808 7   2481619.96007        44.000 7     -2046.688 7
  25036758.712 5  -2480422.37125        33.000 5      4611.937 5
  23124567.063 7  -3036477.42407        46.000 7      2062.412 7
  20021590.337 7  -2460969.30407        46.000 7      1576.668 7
 12 12 12 12 12 32.9990005  0 12G01G03G06G11G14G17G19G20G22G23G28G32
  20398950.126 7  -2738750.69107        47.000 7      2021.936 7
  23188048.389 7   2781640.99707        46.000 7     -2397.035 7
  24422978.818 5   2604316.19235        30.000 5     -2201.685 5
  19920600.028 7  -1802949.10007        44.000 7      1184.259 7
  23332243.448 7   -596873.40207        45.000 7        82.295 7
  25612479.419 5   -719925.55125        31.000 5      4713.923 5
  21352083.323 7    946448.51807        47.000 7     -1053.265 7
  21112222.384 7  -4781949.04407        45.000 7      3566.880 7
  24874105.599 7   2483666.75407        44.000 7     -2046.482 7
  25035881.105 5  -2485034.37825        33.000 5      4613.777 5
  23124174.520 7  -3038539.48507        46.000 7      2062.436 7
  20021290.664 7  -2462545.13307        46.000 7      1576.234 7
 12 12 12 12 12 33.9990005  0 12G01G03G06G11G14G17G19G20G22G23G28G32
  20398565.611 7  -2740771.95907        47.000 7      2020.844 7
  23188504.625 7   2784038.49007        46.000 7     -2398.140 7
  24423399.333 4   2606523.90324        29.000 4     -2206.898 4
  19920375.305 7  -1804132.43207        44.000 7      1182.627 7
  23332227.411 7   -596954.85207        45.000 7        81.444 7
  25611586.858 5   -724638.54325        31.000 5      4712.730 5
  21352283.773 7    947502.83907        47.000 7     -1054.914 7
  21111543.850 7  -4785515.23507        45.000 7      3565.614 7
  24874495.698 7   2485713.35107        44.000 7     -2046.648 7
  25035003.429 5  -2489646.77725        33.000 5      4610.226 5
  23123782.483 7  -3040601.16807        46.000 7      2060.498 7
  20020990.957 7  -2464120.55107        46.000 7      1574.912 7
 12 12 12 12 12 34.9990005  0 12G01G03G06G11G14G17G19G20G22G23G28G32
  20398180.537 7  -2742793.25107        47.000 7      2021.115 7
  23188960.757 7   2786435.88507        46.000 7     -2397.292 7
  24423819.796 4   2608731.45434        29.000 4     -2208.052 4
  19920149.778 7  -1805315.62107        44.000 7      1182.954 7
  23332211.653 7   -597036.00307        45.000 7        80.699 7
  25610687.613 5   -729351.85025        32.000 5      4711.519 5
  21352484.887 7    948557.32407        47.000 7     -1054.989 7
  21110865.298 7  -4789081.27207        45.000 7      3566.539 7
  24874885.833 7   2487759.67407        44.000 7     -2045.864 7
  25034125.561 5  -2494259.56925        33.000 5      4611.858 5
  23123389.888 7  -3042662.55207        46.000 7      2060.843 7
  20020691.249 7  -2465695.65707        46.000 7      1574.703 7
 12 12 12 12 12 35.9990005  0 12G01G03G06G11G14G17G19G20G22G23G28G32
  20397796.161 7  -2744813.90307        47.000 7      2019.758 7
  23189417.202 7   2788833.84507        46.000 7     -2399.560 7
  24424240.085 4   2610939.49224        29.000 4     -2209.859 4
  19919924.565 7  -1806498.05607        44.000 7      1180.890 7
  23332196.210 7   -597116.18907        44.000 7        78.554 7
  25609792.975 5   -734064.77425        32.000 5      4712.589 5
  21352686.193 7    949612.58607        47.000 7     -1056.337 7
  21110186.746 7  -4792646.51807        45.000 7      3563.533 7
  24875274.501 7   2489806.40607        44.000 7     -2047.794 7
  25033247.536 5  -2498872.04425        33.000 5      4610.933 5
  23122997.520 7  -3044722.96207        46.000 7      2059.037 7
  20020392.117 7  -2467269.77207        46.000 7      1572.370 7
 12 12 12 12 12 36.9990005  0 12G01G03G06G11G14G17G19G20G22G23G28G32
  20397412.012 7  -2746834.08407        47.000 7      2020.954 7
  23189873.403 7   2791232.21907        46.000 7     -2398.404 7
  24424660.059 4   2613147.93734        29.000 4     -2207.148 4
  19919699.440 7  -1807679.86807        44.000 7      1182.198 7
  23332181.063 7   -597195.54307        44.000 7        79.583 7
  25608895.406 5   -738777.55025        31.000 5      4713.072 5
  21352887.114 7    950668.49707        47.000 7     -1055.863 7
  21109508.631 7  -4796211.10407        45.000 7      3564.223 7
  24875664.793 7   2491853.35607        44.000 7     -2047.326 7
  25032369.633 5  -2503484.46625        33.000 5      4614.410 5
  23122605.920 7  -3046782.57207        45.000 7      2059.851 7
  20020092.340 7  -2468843.04107        46.000 7      1573.302 7
 12 12 12 12 12 37.9990005  0 12G01G03G06G11G14G17G19G20G22G23G28G32
  20397028.020 7  -2748853.69307        47.000 7      2018.244 7
  23190330.040 7   2793631.11307        46.000 7     -2399.808 7
  24425079.946 4   2615356.74934        29.000 4     -2209.465 4
  19919474.995 7  -1808860.94207        44.000 7      1180.210 7
  23332165.899 7   -597273.97907        44.000 7        77.218 7
  25607997.016 5   -743489.98725        31.000 5      4710.402 5
  21353088.385 7    951725.15607        47.000 7     -1057.786 7
  21108830.707 7  -4799774.93207        45.000 7      3563.055 7
  24876055.032 7   2493900.67507        44.000 7     -2048.158 7
  25031491.887 5  -2508096.70325        33.000 5      4611.188 5
  23122214.354 7  -3048841.26607        45.000 7      2057.200 7
  20019792.877 7  -2470415.38307        47.000 7      1571.255 7
 12 12 12 12 12 38.9990005  0 12G01G03G06G11G14G17G19G20G22G23G28G32
  20396643.801 7  -2750872.79607        47.000 7      2020.070 7
  23190786.451 7   2796030.42507        46.000 7     -2398.472 7
  24425500.112 4   2617565.96234        29.000 4     -2210.054 4
  19919250.446 7  -1810041.39407        44.000 7      1180.910 7
  23332151.223 7   -597351.60707        44.000 7        78.449 7
  25607101.314 5   -748202.19525        32.000 5      4712.527 5
  21353290.180 7    952782.46907        47.000 7     -1056.887 7
  21108152.714 7  -4803338.11907        45.000 7      3563.622 7
  24876444.434 7   2495948.23707        44.000 7     -2046.956 7
  25030614.001 5  -2512708.81525        33.000 5      4612.487 5
  23121823.016 7  -3050899.12707        45.000 7      2058.610 7
  20019494.112 7  -2471986.90007        46.000 7      1572.171 7
 12 12 12 12 12 39.9990005  0 12G01G03G06G11G14G17G19G20G22G23G28G32
  20396259.582 7  -2752892.25607        47.000 7      2018.525 7
  23191242.687 7   2798429.32407        46.000 7     -2399.364 7
  24425920.139 4   2619774.68124        29.000 4     -2208.941 4
  19919026.001 7  -1811222.03807        45.000 7      1180.060 7
  23332136.286 7   -597429.21807        45.000 7        76.708 7
  25606204.251 5   -752915.04625        32.000 5      4712.095 5
  21353491.642 7    953839.60007        47.000 7     -1058.304 7
  21107475.000 7  -4806901.44907        45.000 7      3562.487 7
  24876833.574 7   2497995.19807        44.000 7     -2047.547 7
  25029735.662 5  -2517321.61225        33.000 5      4611.794 5
  23121431.101 7  -3052957.02407        46.000 7      2056.889 7
  20019194.893 7  -2473558.40107        46.000 7      1570.917 7
 12 12 12 12 12 40.9990005  0 12G01G03G06G11G14G17G19G20G22G23G28G32
  20395875.049 7  -2754911.12107        47.000 7      2018.615 7
  23191698.923 7   2800828.74707        46.000 7     -2399.500 7
  24426340.166 4   2621983.87634        29.000 4     -2207.190 4
  19918801.679 7  -1812401.94007        45.000 7      1180.042 7
  23332122.029 7   -597505.92007        45.000 7        76.825 7
  25605308.025 5   -757627.59025        31.000 5      4710.769 5
  21353692.983 7    954897.48107        47.000 7     -1057.952 7
  21106797.635 7  -4810464.04307        46.000 7      3562.581 7
  24877222.487 7   2500042.53107        44.000 7     -2047.304 7
  25028857.637 5  -2521934.21625        33.000 5      4611.792 5
  23121039.867 7  -3055013.98207        46.000 7      2056.552 7
  20018895.988 7  -2475128.96407        46.000 7      1570.216 7
 12 12 12 12 12 42.0000000  0 12G01G03G06G11G14G17G19G20G22G23G28G32
  20695283.512 7  -2756929.08007        47.000 7      2017.649 7
  23491948.556 7   2803229.01007        46.000 7     -2400.822 7
  24726552.874 4   2624193.78934        28.000 4     -2210.533 4
  20218369.706 7  -1813580.80307        45.000 7      1178.421 7
  23631900.052 7   -597581.39007        45.000 7        74.334 7
  25904203.975 5   -762339.55625        31.000 5      4711.742 5
  21653686.918 7    955956.44207        47.000 7     -1059.884 7
  21405912.498 7  -4814025.55607        46.000 7      3560.828 7
  25177405.634 7   2502090.51607        44.000 7     -2048.397 7
  25327772.224 5  -2526546.30525        33.000 5      4612.397 5
  23420441.263 7  -3057069.71007        46.000 7      2055.097 7
  20318389.974 7  -2476698.26807        46.000 7      1569.129 7
 12 12 12 12 12 43.0000000  0 12G01G03G06G11G14G17G19G20G22G23G28G32
  20694899.554 7  -2758947.02907        47.000 7      2018.571 7
  23492405.088 7   2805629.21807        46.000 7     -2399.848 7
  24726973.302 4   2626403.64034        29.000 4     -2208.284 4
  20218145.576 7  -1814759.54307        45.000 7      1179.295 7
  23631886.110 7   -597656.52007        45.000 7        75.681 7
  25903307.592 5   -767052.29505        31.000 5      4712.233 5
  21653888.416 7    957015.54907        47.000 7     -1059.316 7
  21405235.848 7  -4817586.90607        46.000 7      3561.569 7
  25177795.472 7   2504138.27207        44.000 7     -2046.573 7
  25326895.036 5  -2531159.19805        34.000 5      4613.696 5
  23420050.448 7  -3059125.10607        46.000 7      2055.597 7
  20318091.244 7  -2478267.20907        46.000 7      1569.589 7
 12 12 12 12 12 44.0000000  0 12G01G03G06G11G14G17G19G20G22G23G28G32
  20694515.545 7  -2760964.82007        47.000 7      2017.399 7
  23492861.883 7   2808029.53307        46.000 7     -2400.770 7
  24727393.573 4   2628613.45134        29.000 4     -2208.133 4
  20217921.498 7  -1815937.95007        45.000 7      1177.928 7
  23631871.800 7   -597731.14107        44.000 7        74.224 7
  25902410.878 5   -771764.58605        31.000 5      4711.430 5
  21654090.018 7    958075.01207        47.000 7     -1060.410 7
  21404557.925 7  -4821147.89907        46.000 7      3559.946 7
  25178184.926 7   2506185.96807        44.000 7     -2048.348 7
  25326017.377 5  -2535771.85205        34.000 5      4611.354 5
  23419659.162 7  -3061179.97907        46.000 7      2054.336 7
  20317792.671 7  -2479835.64507        46.000 7      1567.678 7
 12 12 12 12 12 45.0000000  0 12G01G03G06G11G14G17G19G20G22G23G28G32
  20694131.309 7  -2762982.15007        47.000 7      2016.129 7
  23493318.485 7   2810430.23007        46.000 7     -2401.317 7
  24727814.926 4   2630823.60834        29.000 4     -2209.973 4
  20217697.349 7  -1817115.75007        45.000 7      1176.734 7
  23631858.102 7   -597804.95207        44.000 7        73.092 7
  25901514.216 5   -776476.22235        31.000 5      4712.047 5
  21654291.411 7    959135.09507        47.000 7     -1060.884 7
  21403880.298 7  -4824708.25007        46.000 7      3559.782 7
  25178574.694 7   2508233.89407        44.000 7     -2048.387 7
  25325139.928 5  -2540384.43905        34.000 5      4612.372 5
  23419268.643 7  -3063234.08107        46.000 7      2052.834 7
  20317494.499 7  -2481403.24407        46.000 7      1566.635 7
 12 12 12 12 12 46.0000000  0 12G01G03G06G11G14G17G19G20G22G23G28G32
  20693747.927 7  -2764998.95007        47.000 7      2017.853 7
  23493775.489 7   2812831.38807        46.000 7     -2400.645 7
  24728236.070 5   2633034.07725        30.000 5     -2209.364 5
  20217473.638 7  -1818292.89807        45.000 7      1177.508 7
  23631844.822 7   -597877.92107        45.000 7        73.541 7
  25900617.816 5   -781188.16725        31.000 5      4712.368 5
  21654493.450 7    960195.85207        47.000 7     -1060.047 7
  21403203.509 7  -4828267.93107        46.000 7      3560.105 7
  25178965.422 7   2510282.08307        44.000 7     -2046.890 7
  25324262.514 5  -2544996.82605        34.000 5      4613.494 5
  23418878.439 7  -3065287.32207        46.000 7      2053.797 7
  20317196.746 7  -2482969.98207        46.000 7      1567.966 7
 12 12 12 12 12 47.0000000  0 12G01G03G06G11G14G17G19G20G22G23G28G32
  20693364.738 7  -2767015.67307        47.000 7      2016.598 7
  23494232.667 7   2815232.55607        46.000 7     -2401.436 7
  24728656.742 4   2635244.50524        29.000 4     -2212.594 4
  20217250.031 7  -1819469.82807        45.000 7      1176.631 7
  23631830.758 7   -597950.46407        45.000 7        72.438 7
  25899721.590 5   -785900.23125        31.000 5      4711.606 5
  21654695.349 7    961256.85807        47.000 7     -1061.758 7
  21402526.004 7  -4831827.35507        46.000 7      3558.997 7
  25179355.138 7   2512330.10607        44.000 7     -2048.683 7
  25323384.349 5  -2549609.56305        34.000 5      4612.277 5
  23418487.728 7  -3067340.15007        46.000 7      2052.581 7
  20316898.400 7  -2484536.31907        46.000 7      1566.486 7
 12 12 12 12 12 48.0000000  0 12G01G03G06G11G14G17G19G20G22G23G28G32
  20692980.798 7  -2769032.52607        47.000 7      2017.168 7
  23494689.531 7   2817633.53307        46.000 7     -2400.873 7
  24729076.787 4   2637454.78334        28.000 4     -2208.270 4
  20217025.359 7  -1820646.73707        45.000 7      1176.746 7
  23631816.920 7   -598022.80807        45.000 7        72.589 7
  25898824.875 5   -790612.80425        31.000 5      4713.839 5
  21654896.933 7    962317.89207        47.000 7     -1061.395 7
  21401848.935 7  -4835386.74207        46.000 7      3559.152 7
  25179743.911 7   2514377.78607        44.000 7     -2047.424 7
  25322506.708 5  -2554222.76705        34.000 5      4614.875 5
  23418097.262 7  -3069392.79407        46.000 7      2052.643 7
  20316600.385 7  -2486102.42007        46.000 7      1566.201 7
 12 12 12 12 12 49.0000000  0 12G01G03G06G11G14G17G19G20G22G23G28G32
  20692596.981 7  -2771049.30607        47.000 7      2015.579 7
  23495146.675 7   2820034.50707        46.000 7     -2402.224 7
  24729497.284 4   2639664.96634        29.000 4     -2213.464 4
  20216801.822 7  -1821823.44307        45.000 7      1175.177 7
  23631803.762 7   -598094.75407        45.000 7        70.133 7
  25897928.301 5   -795325.50825        30.000 5      4712.394 5
  21655099.024 7    963379.16207        47.000 7     -1062.672 7
  21401171.762 7  -4838945.88807        46.000 7      3557.468 7
  25180133.819 7   2516425.28507        44.000 7     -2048.240 7
  25321629.049 5  -2558836.28205        34.000 5      4613.042 5
  23417707.006 7  -3071445.03607        46.000 7      2050.632 7
  20316302.422 7  -2487668.08007        46.000 7      1564.362 7
 12 12 12 12 12 50.0000000  0 12G01G03G06G11G14G17G19G20G22G23G28G32
  20692213.495 7  -2773065.13407        47.000 7      2016.795 7
  23495603.783 7   2822436.37507        46.000 7     -2401.515 7
  24729918.725 5   2641875.95035        30.000 5     -2211.253 5
  20216578.354 7  -1822999.04107        45.000 7      1176.285 7
  23631789.889 7   -598165.39607        45.000 7        70.853 7
  25897031.604 5   -800037.61925        30.000 5      4712.605 5
  21655301.203 7    964441.54607        47.000 7     -1062.251 7
  21400495.147 7  -4842503.90507        46.000 7      3558.332 7
  25180522.854 7   2518473.50907        44.000 7     -2047.082 7
  25320751.565 5  -2563449.24805        34.000 5      4612.886 5
  23417316.575 7  -3073495.99707        46.000 7      2051.529 7
  20316004.687 7  -2489232.44207        46.000 7      1565.135 7
 12 12 12 12 12 51.0000000  0 12G01G03G06G11G14G17G19G20G22G23G28G32
  20691829.852 7  -2775081.15607        47.000 7      2015.545 7
  23496060.612 7   2824837.97707        46.000 7     -2402.001 7
  24730339.694 5   2644086.59835        30.000 5     -2210.411 5
  20216354.276 7  -1824174.69907        45.000 7      1174.926 7
  23631776.365 7   -598235.89907        45.000 7        69.823 7
  25896134.732 5   -804750.13825        30.000 5      4711.583 5
  21655503.625 7    965503.90007        47.000 7     -1062.616 7
  21399818.428 7  -4846061.94907        46.000 7      3557.458 7
  25180912.570 7   2520521.29307        44.000 7     -2048.325 7
  25319873.906 5  -2568062.26735        34.000 5      4614.167 5
  23416926.108 7  -3075546.81307        46.000 7      2050.187 7
  20315707.544 7  -2490796.65507        46.000 7      1563.414 7
 12 12 12 12 12 52.0000000  0 12G01G03G06G11G14G17G19G20G22G23G28G32
  20691446.191 7  -2777096.65407        47.000 7      2014.198 7
  23496518.122 7   2827240.02707        46.000 7     -2402.523 7
  24730760.226 5   2646297.65425        30.000 5     -2213.273 5
  20216130.843 7  -1825349.68907        45.000 7      1174.355 7
  23631763.382 7   -598305.54707        45.000 7        68.851 7
  25895237.250 5   -809462.49225        30.000 5      4711.894 5
  21655706.379 7    966566.93907        47.000 7     -1063.639 7
  21399141.482 7  -4849619.29807        46.000 7      3556.236 7
  25181302.914 7   2522569.34507        44.000 7     -2049.032 7
  25318995.549 5  -2572675.62725        35.000 5      4613.600 5
  23416535.642 7  -3077596.77607        46.000 7      2048.931 7
  20315409.966 7  -2492359.99007        46.000 7      1562.274 7
 12 12 12 12 12 53.0000000  0 12G01G03G06G11G14G17G19G20G22G23G28G32
  20691062.374 7  -2779111.60407        47.000 7      2015.474 7
  23496975.440 7   2829642.55407        46.000 7     -2402.131 7
  24731181.702 5   2648509.06425        30.000 5     -2211.909 5
  20215907.725 7  -1826523.99907        45.000 7      1174.616 7
  23631749.893 7   -598374.31007        44.000 7        68.489 7
  25894340.047 5   -814174.55125        30.000 5      4712.903 5
  21655908.400 7    967630.67607        47.000 7     -1063.829 7
  21398464.361 7  -4853175.92807        46.000 7      3556.859 7
  25181691.547 7   2524617.71407        44.000 7     -2047.900 7
  25318117.559 5  -2577288.81425        34.000 5      4612.551 5
  23416146.415 7  -3079645.86307        46.000 7      2049.456 7
  20315112.195 7  -2493922.41707        46.000 7      1562.410 7
 12 12 12 12 12 54.0000000  0 12G01G03G06G11G14G17G19G20G22G23G28G32
  20690679.429 7  -2781125.90607        47.000 7      2014.686 7
  23497432.514 7   2832045.67307        46.000 7     -2403.144 7
  24731603.683 4   2650721.05434        29.000 4     -2212.582 4
  20215683.682 7  -1827697.49207        45.000 7      1173.846 7
  23631736.683 7   -598442.07007        44.000 7        67.698 7
  25893443.124 5   -818886.23635        30.000 5      4712.370 5
  21656111.032 7    968695.26007        47.000 7     -1064.624 7
  21397786.821 7  -4856731.73607        46.000 7      3556.123 7
  25182081.874 7   2526666.52607        44.000 7     -2048.459 7
  25317239.953 5  -2581901.71825        35.000 5      4614.387 5
  23415756.106 7  -3081693.95607        46.000 7      2047.713 7
  20314815.280 7  -2495483.86307        46.000 7      1561.318 7
 12 12 12 12 12 55.0000000  0 12G01G03G06G11G14G17G19G20G22G23G28G32
  20690295.995 7  -2783139.32007        47.000 7      2013.542 7
  23497889.500 7   2834449.60207        46.000 7     -2404.220 7
  24732025.891 5   2652933.75035        30.000 5     -2211.785 5
  20215460.842 7  -1828869.98107        45.000 7      1172.316 7
  23631723.578 7   -598508.62907        44.000 7        66.176 7
  25892546.619 5   -823597.34225        30.000 5      4711.019 5
  21656313.368 7    969760.87207        47.000 7     -1065.795 7
  21397110.067 7  -4860286.51007        46.000 7      3554.620 7
  25182473.352 7   2528715.94007        45.000 7     -2049.309 7
  25316362.364 5  -2586514.12725        35.000 5      4611.670 5
  23415366.286 7  -3083740.84307        46.000 7      2046.629 7
  20314518.487 7  -2497044.05507        47.000 7      1559.939 7
 12 12 12 12 12 56.0000000  0 12G01G03G06G11G14G17G19G20G22G23G28G32
  20689912.718 7  -2785152.97307        47.000 7      2013.899 7
  23498346.800 7   2836853.24907        46.000 7     -2403.368 7
  24732447.401 5   2655146.06725        30.000 5     -2211.778 5
  20215237.427 7  -1830042.53307        45.000 7      1172.918 7
  23631710.892 7   -598575.07507        44.000 7        66.294 7
  25891649.712 5   -828308.92225        30.000 5      4709.609 5
  21656516.139 7    970826.44007        47.000 7     -1065.325 7
  21396433.417 7  -4863841.31907        46.000 7      3555.054 7
  25182862.946 7   2530764.89607        45.000 7     -2048.841 7
  25315485.333 5  -2591127.13625        35.000 5      4613.251 5
  23414976.780 7  -3085787.61707        46.000 7      2046.820 7
  20314221.815 7  -2498604.13207        47.000 7      1560.120 7
 12 12 12 12 12 57.0000000  0 12G01G03G06G11G14G17G19G20G22G23G28G32
  20689529.058 7  -2787166.99307        47.000 7      2014.534 7
  23498804.380 7   2839256.43807        46.000 7     -2402.585 7
  24732868.946 5   2657357.87935        30.000 5     -2210.869 5
  20215014.326 7  -1831215.32407        45.000 7      1173.229 7
  23631698.014 7   -598641.54907        44.000 7        66.712 7
  25890752.614 5   -833021.16925        31.000 5      4712.597 5
  21656718.597 7    971891.78307        47.000 7     -1064.760 7
  21395756.820 7  -4867396.33807        46.000 7      3555.219 7
  25183252.836 7   2532813.25907        45.000 7     -2047.974 7
  25314607.535 5  -2595740.88825        35.000 5      4613.445 5
  23414587.203 7  -3087834.43507        45.000 7      2047.153 7
  20313925.022 7  -2500164.24207        47.000 7      1560.510 7
 12 12 12 12 12 58.0000000  0 12G01G03G06G11G14G17G19G20G22G23G28G32
  20689145.607 7  -2789180.26907        47.000 7      2012.425 7
  23499261.645 7   2841660.31607        46.000 7     -2404.559 7
  24733290.351 5   2659570.27135        30.000 5     -2215.468 5
  20214791.836 7  -1832387.23407        45.000 7      1170.590 7
  23631685.659 7   -598706.95707        44.000 7        64.437 7
  25889856.127 5   -837732.98525        31.000 5      4711.716 5
  21656921.578 7    972958.03707        47.000 7     -1067.313 7
  21395080.188 7  -4870950.43207        46.000 7      3553.245 7
  25183642.866 7   2534862.10907        45.000 7     -2049.458 7
  25313729.702 5  -2600354.25325        35.000 5      4611.972 5
  23414197.261 7  -3089880.18607        45.000 7      2044.883 7
  20313628.054 7  -2501723.26407        47.000 7      1557.715 7
 12 12 12 12 12 59.0000000  0 12G01G03G06G11G14G17G19G20G22G23G28G32
  20688762.470 7  -2791192.74907        47.000 7      2012.722 7
  23499719.068 7   2844064.90807        46.000 7     -2404.893 7
  24733711.564 5   2661783.38925        30.000 5     -2214.820 5
  20214569.398 7  -1833558.20507        45.000 7      1170.678 7
  23631673.496 7   -598771.22807        44.000 7        64.349 7
  25888959.046 5   -842444.24525        31.000 5      4710.195 5
  21657124.838 7    974025.24607        47.000 7     -1067.243 7
  21394403.817 7  -4874503.58707        46.000 7      3552.908 7
  25184032.756 7   2536911.50907        45.000 7     -2049.222 7
  25312851.432 5  -2604967.23325        34.000 5      4613.397 5
  23413807.737 7  -3091924.80407        45.000 7      2044.288 7
  20313331.645 7  -2503281.13607        47.000 7      1557.539 7
 12 12 12 12 13  0.0000000  0 12G01G03G06G11G14G17G19G20G22G23G28G32
  20688379.333 7  -2793205.24707        47.000 7      2012.692 7
  23500177.154 7   2846469.43307        46.000 7     -2404.977 7
  24734132.795 5   2663996.33225        30.000 5     -2212.301 5
  20214345.808 7  -1834729.01907        45.000 7      1171.084 7
  23631661.351 7   -598835.16907        44.000 7        63.771 7
  25888062.506 5   -847155.80625        31.000 5      4711.079 5
  21657327.749 7    975092.62107        47.000 7     -1067.308 7
  21393727.709 7  -4878056.55607        46.000 7      3553.181 7
  25184422.664 7   2538960.68807        45.000 7     -2049.140 7
  25311973.390 5  -2609580.57635        35.000 5      4613.667 5
  23413419.278 7  -3093969.09207        45.000 7      2043.961 7
  20313035.567 7  -2504838.64107        47.000 7      1557.278 7
 12 12 12 12 13  1.0000000  0 12G01G03G06G11G14G17G19G20G22G23G28G32
  20687996.021 7  -2795217.98507        47.000 7      2012.619 7
  23500634.349 7   2848873.64707        46.000 7     -2404.112 7
  24734553.851 5   2666208.89225        30.000 5     -2210.415 5
  20214123.161 7  -1835899.97207        45.000 7      1170.646 7
  23631649.746 7   -598899.04407        44.000 7        63.365 7
  25887165.792 5   -851868.42905        31.000 5      4712.101 5
  21657531.532 7    976159.88107        47.000 7     -1067.304 7
  21393051.844 7  -4881609.62507        46.000 7      3553.249 7
  25184812.693 7   2541009.35607        45.000 7     -2048.817 7
  25311095.103 5  -2614194.57925        35.000 5      4613.567 5
  23413030.347 7  -3096013.30607        45.000 7      2044.507 7
  20312739.297 7  -2506396.06507        47.000 7      1557.525 7
 12 12 12 12 13  2.0000000  0 12G01G03G06G11G14G17G19G20G22G23G28G32
  20687613.460 7  -2797230.00707        47.000 7      2012.098 7
  23501092.034 7   2851278.50607        46.000 7     -2404.231 7
  24734975.152 5   2668421.98335        30.000 5     -2212.906 5
  20213900.374 7  -1837070.05707        45.000 7      1170.326 7
  23631637.706 7   -598961.85007        44.000 7        62.857 7
  25886269.165 5   -856580.08705        32.000 5      4712.725 5
  21657734.985 7    977228.04207        47.000 7     -1067.928 7
  21392375.404 7  -4885161.80307        46.000 7      3551.941 7
  25185202.392 7   2543058.51807        44.000 7     -2048.931 7
  25310216.886 5  -2618808.19625        35.000 5      4614.024 5
  23412641.050 7  -3098056.49007        45.000 7      2042.981 7
  20312443.150 7  -2507952.42607        47.000 7      1556.351 7
 12 12 12 12 13  3.0000000  0 12G01G03G06G11G14G17G19G20G22G23G28G32
  20687230.533 7  -2799241.62807        47.000 7      2011.766 7
  23501549.805 7   2853683.67607        46.000 7     -2405.381 7
  24735396.243 4   2670635.38924        29.000 4     -2212.597 4
  20213678.180 7  -1838239.60107        45.000 7      1168.941 7
  23631626.311 7   -599023.93607        44.000 7        61.644 7
  25885372.956 5   -861291.70405        32.000 5      4710.702 5
  21657938.524 7    978296.76607        47.000 7     -1068.661 7
  21391699.487 7  -4888713.39707        45.000 7      3551.583 7
  25185593.346 7   2545107.81407        45.000 7     -2049.404 7
  25309338.773 5  -2623421.76525        35.000 5      4614.397 5
  23412253.080 7  -3100098.93207        45.000 7      2041.949 7
  20312147.211 7  -2509508.03007        47.000 7      1555.618 7
 12 12 12 12 13  4.0000000  0 12G01G03G06G11G14G17G19G20G22G23G28G32
  20686847.570 7  -2801253.19707        46.000 7      2011.430 7
  23502007.001 7   2856088.84907        46.000 7     -2405.207 7
  24735817.457 4   2672848.69024        29.000 4     -2216.971 4
  20213455.219 7  -1839408.94107        45.000 7      1168.966 7
  23631614.689 7   -599085.63207        44.000 7        61.101 7
  25884477.132 5   -866003.48105        32.000 5      4710.771 5
  21658141.889 7    979365.69607        47.000 7     -1069.424 7
  21391023.204 7  -4892264.78307        46.000 7      3550.778 7
  25185982.626 7   2547156.93307        45.000 7     -2049.439 7
  25308460.888 5  -2628035.70925        34.000 5      4613.984 5
  23411863.940 7  -3102140.98007        45.000 7      2041.485 7
  20311851.378 7  -2511063.22607        47.000 7      1554.692 7
 12 12 12 12 13  5.0000000  0 12G01G03G06G11G14G17G19G20G22G23G28G32
  20686464.782 7  -2803263.95607        46.000 7      2009.843 7
  23502464.912 7   2858494.76307        46.000 7     -2406.724 7
  24736239.298 4   2675062.64324        29.000 4     -2217.383 4
  20213232.956 7  -1840577.32507        44.000 7      1167.784 7
  23631603.294 7   -599146.17707        44.000 7        59.375 7
  25883581.081 5   -870714.71605        32.000 5      4710.497 5
  21658345.934 7    980435.61007        47.000 7     -1070.759 7
  21390347.951 7  -4895815.17107        46.000 7      3549.258 7
  25186372.080 7   2549206.65507        45.000 7     -2050.353 7
  25307583.089 5  -2632649.18725        34.000 5      4613.198 5
  23411475.463 7  -3104181.88307        45.000 7      2040.075 7
  20311555.614 7  -2512617.26407        47.000 7      1553.384 7
 12 12 12 12 13  6.0000000  0 12G01G03G06G11G14G17G19G20G22G23G28G32
  20686082.134 7  -2805274.87107        46.000 7      2011.285 7
  23502922.945 7   2860900.43607        46.000 7     -2405.829 7
  24736660.372 5   2677276.34935        30.000 5     -2212.635 5
  20213010.395 7  -1841745.72507        44.000 7      1168.941 7
  23631591.916 7   -599206.56207        44.000 7        60.861 7
  25882684.680 5   -875426.40705        33.000 5      4712.746 5
  21658549.980 8    981505.51008        48.000 8     -1069.527 8
  21389672.243 7  -4899365.56007        46.000 7      3550.145 7
  25186763.104 7   2551255.92407        45.000 7     -2048.843 7
  25306705.221 5  -2637263.21225        34.000 5      4615.083 5
  23411086.777 7  -3106222.62107        45.000 7      2040.852 7
  20311259.833 7  -2514171.11807        47.000 7      1553.939 7
 12 12 12 12 13  7.0000000  0 12G01G03G06G11G14G17G19G20G22G23G28G32
  20685699.555 7  -2807285.44907        46.000 7      2010.414 7
  23503381.502 7   2863306.41907        46.000 7     -2405.711 7
  24737081.062 4   2679490.27334        29.000 4     -2215.346 4
  20212788.027 7  -1842913.64407        44.000 7      1167.927 7
  23631581.045 7   -599266.25007        44.000 7        59.615 7
  25881788.978 5   -880138.04605        32.000 5      4711.613 5
  21658753.676 8    982575.93508        48.000 8     -1070.771 8
  21388997.251 7  -4902915.42407        46.000 7      3549.747 7
  25187153.500 7   2553305.31707        45.000 7     -2049.549 7
  25305827.388 5  -2641877.72205        34.000 5      4614.364 5
  23410698.737 7  -3108262.68907        45.000 7      2039.897 7
  20310964.122 7  -2515724.27307        47.000 7      1552.919 7
 12 12 12 12 13  8.0000000  0 12G01G03G06G11G14G17G19G20G22G23G28G32
  20685317.064 7  -2809295.74007        46.000 7      2010.065 7
  23503839.570 7   2865712.57507        46.000 7     -2406.094 7
  24737501.525 4   2681704.33534        28.000 4     -2214.397 4
  20212565.677 7  -1844081.15207        44.000 7      1167.498 7
  23631568.708 7   -599325.34207        45.000 7        58.247 7
  25880893.451 5   -884849.74005        32.000 5      4711.742 5
  21658957.791 8    983646.78308        48.000 8     -1071.260 8
  21388321.841 7  -4906464.84307        46.000 7      3549.208 7
  25187542.239 7   2555354.74607        44.000 7     -2049.468 7
  25304948.787 5  -2646491.85905        35.000 5      4614.208 5
  23410310.661 7  -3110302.13807        45.000 7      2039.013 7
  20310668.846 7  -2517276.78907        47.000 7      1552.012 7
 12 12 12 12 13  9.0000000  0 12G01G03G06G11G14G17G19G20G22G23G28G32
  20684934.224 7  -2811306.40307        47.000 7      2010.348 7
  23504297.499 7   2868118.31607        46.000 7     -2405.648 7
  24737922.529 4   2683917.87234        29.000 4     -2214.452 4
  20212343.309 7  -1845248.85907        44.000 7      1167.538 7
  23631557.400 7   -599384.43107        45.000 7        59.350 7
  25879997.626 5   -889562.06205        32.000 5      4712.840 5
  21659161.540 8    984717.45708        48.000 8     -1070.651 8
  21387646.029 7  -4910014.45307        46.000 7      3549.613 7
  25187932.461 7   2557403.58807        45.000 7     -2048.292 7
  25304070.919 5  -2651106.75605        35.000 5      4614.802 5
  23409923.266 7  -3112341.61207        45.000 7      2039.486 7
  20310373.048 7  -2518829.33207        46.000 7      1552.446 7
 12 12 12 12 13 10.0000000  0 12G01G03G06G11G14G17G19G20G22G23G28G32
  20684551.959 7  -2813316.77107        46.000 7      2010.483 7
  23504755.340 7   2870524.26707        46.000 7     -2405.796 7
  24738343.847 4   2686131.55334        29.000 4     -2214.541 4
  20212121.185 7  -1846416.16307        44.000 7      1167.245 7
  23631546.354 7   -599442.93607        44.000 7        58.475 7
  25879101.697 5   -894274.36005        31.000 5      4714.139 5
  21659364.992 8    985788.54908        48.000 8     -1071.275 8
  21386970.618 7  -4913563.61407        46.000 7      3549.409 7
  25188324.253 7   2559452.42807        45.000 7     -2048.930 7
  25303192.667 5  -2655721.77505        35.000 5      4613.854 5
  23409535.418 7  -3114380.49307        45.000 7      2038.857 7
  20310077.720 7  -2520381.25107        46.000 7      1551.193 7
 12 12 12 12 13 11.0000000  0 12G01G03G06G11G14G17G19G20G22G23G28G32
  20684169.101 7  -2815326.48907        47.000 7      2009.035 7
  23505213.217 7   2872930.81507        46.000 7     -2407.507 7
  24738765.619 4   2688345.78524        29.000 4     -2216.490 4
  20211899.043 7  -1847582.64507        44.000 7      1165.295 7
  23631535.186 7   -599500.41907        44.000 7        56.364 7
  25878206.082 5   -898986.31805        32.000 5      4710.071 5
  21659568.933 8    986860.49108        48.000 8     -1072.896 8
  21386295.556 7  -4917111.94207        45.000 7      3546.897 7
  25188713.393 7   2561501.72907        45.000 7     -2050.550 7
  25302314.310 5  -2660336.39805        35.000 5      4614.306 5
  23409147.691 7  -3116418.36807        46.000 7      2037.202 7
  20309782.829 7  -2521932.14107        46.000 7      1549.925 7
 12 12 12 12 13 12.0000000  0 12G01G03G06G11G14G17G19G20G22G23G28G32
  20683786.470 7  -2817335.45407        47.000 7      2009.950 7
  23505671.285 7   2875338.04207        46.000 7     -2406.556 7
  24739186.849 4   2690560.64734        28.000 4     -2209.214 4
  20211677.461 7  -1848748.21607        44.000 7      1166.842 7
  23631524.559 7   -599556.84207        44.000 7        56.726 7
  25877310.519 5   -903697.76305        32.000 5      4711.653 5
  21659773.170 8    987933.33008        48.000 8     -1072.047 8
  21385620.372 7  -4920659.35407        45.000 7      3547.858 7
  25189103.283 7   2563551.52707        45.000 7     -2049.104 7
  25301436.739 5  -2664950.70405        35.000 5      4614.916 5
  23408760.157 7  -3118455.17607        46.000 7      2037.342 7
  20309487.502 7  -2523481.94507        46.000 7      1550.218 7
 12 12 12 12 13 13.0000000  0 12G01G03G06G11G14G17G19G20G22G23G28G32
  20683404.590 7  -2819344.51507        47.000 7      2008.882 7
  23506129.370 7   2877745.10507        46.000 7     -2407.000 7
  24739607.522 4   2692775.15234        28.000 4     -2218.579 4
  20211455.738 7  -1849913.77307        44.000 7      1165.383 7
  23631514.193 7   -599613.02507        44.000 7        55.821 7
  25876414.468 5   -908409.57005        32.000 5      4711.921 5
  21659978.123 8    989006.22808        48.000 8     -1072.772 8
  21384945.276 7  -4924206.68407        45.000 7      3546.714 7
  25189494.011 7   2565600.98007        45.000 7     -2049.893 7
  25300558.853 5  -2669565.48005        35.000 5      4614.253 5
  23408372.797 7  -3120491.74907        46.000 7      2036.157 7
  20309192.593 7  -2525031.50007        46.000 7      1549.473 7
 12 12 12 12 13 14.0000000  0 12G01G03G06G11G14G17G19G20G22G23G28G32
  20683022.116 7  -2821352.85507        47.000 7      2008.502 7
  23506587.439 7   2880152.83307        46.000 7     -2407.153 7
  24740028.630 4   2694990.39924        28.000 4     -2212.678 4
  20211234.434 7  -1851078.44607        44.000 7      1165.336 7
  23631503.514 7   -599668.12607        44.000 7        55.894 7
  25875518.609 5   -913120.99105        32.000 5      4711.043 5
  21660182.919 8    990080.01808        48.000 8     -1073.094 8
  21384270.441 7  -4927753.12307        45.000 7      3547.708 7
  25189884.529 7   2567650.92107        45.000 7     -2049.066 7
  25299680.985 6  -2674179.89306        36.000 6      4614.902 6
  23407985.856 7  -3122527.24607        46.000 7      2036.375 7
  20308897.824 7  -2526579.96307        46.000 7      1548.871 7
 12 12 12 12 13 15.0000000  0 12G01G03G06G11G14G17G19G20G22G23G28G32
  20682640.009 7  -2823360.80907        47.000 7      2007.703 7
  23507045.158 7   2882560.86407        46.000 7     -2408.678 7
  24740450.123 4   2697205.78934        28.000 4     -2215.615 4
  20211012.869 7  -1852242.60107        44.000 7      1164.287 7
  23631492.625 7   -599722.52407        44.000 7        54.071 7
  25874622.715 5   -917832.25305        32.000 5      4710.683 5
  21660387.069 8    991154.34908        48.000 8     -1074.614 8
  21383595.240 7  -4931299.00207        45.000 7      3545.620 7
  25190274.507 7   2569701.01807        45.000 7     -2050.208 7
  25298803.152 6  -2678794.31106        36.000 6      4614.112 6
  23407598.653 7  -3124562.05407        46.000 7      2034.402 7
  20308603.613 7  -2528127.71007        46.000 7      1547.573 7
 12 12 12 12 13 16.0000000  0 12G01G03G06G11G14G17G19G20G22G23G28G32
  20682258.093 7  -2825368.66507        47.000 7      2008.613 7
  23507503.959 7   2884968.94407        46.000 7     -2406.947 7
  24740872.261 4   2699421.15424        28.000 4     -2216.023 4
  20210791.059 7  -1853406.50807        44.000 7      1164.924 7
  23631481.910 7   -599776.48707        44.000 7        54.161 7
  25873726.576 5   -922543.73705        32.000 5      4711.617 5
  21660591.620 8    992228.94908        48.000 8     -1073.704 8
  21382920.248 7  -4934844.62107        45.000 7      3546.424 7
  25190664.065 7   2571750.94807        45.000 7     -2049.149 7
  25297925.232 6  -2683409.00106        36.000 6      4616.174 6
  23407211.904 7  -3126596.40707        46.000 7      2035.193 7
  20308308.984 7  -2529674.99807        46.000 7      1548.014 7
 12 12 12 12 13 17.0000000  0 12G01G03G06G11G14G17G19G20G22G23G28G32
  20681875.707 7  -2827376.34107        47.000 7      2007.152 7
  23507961.504 7   2887377.12407        46.000 7     -2408.699 7
  24741293.667 4   2701636.57134        29.000 4     -2216.246 4
  20210569.703 7  -1854570.08107        44.000 7      1163.247 7
  23631472.138 7   -599829.92707        44.000 7        52.937 7
  25872830.298 5   -927255.32405        32.000 5      4710.944 5
  21660796.451 8    993303.88808        48.000 8     -1075.292 8
  21382245.588 7  -4938389.87907        45.000 7      3544.462 7
  25191053.485 7   2573800.84607        45.000 7     -2050.136 7
  25297047.014 6  -2688023.87006        36.000 6      4614.974 6
  23406824.736 7  -3128630.24807        46.000 7      2033.183 7
  20308014.703 7  -2531221.75207        46.000 7      1546.176 7
 12 12 12 12 13 18.0000000  0 12G01G03G06G11G14G17G19G20G22G23G28G32
  20681493.529 7  -2829383.45107        47.000 7      2007.210 7
  23508419.869 7   2889785.79307        46.000 7     -2408.047 7
  24741714.775 4   2703852.39434        29.000 4     -2215.844 4
  20210348.714 7  -1855732.95107        44.000 7      1163.307 7
  23631462.366 7   -599882.47207        44.000 7        52.845 7
  25871934.230 5   -931966.59705        32.000 5      4711.936 5
  21661001.543 8    994379.54808        48.000 8     -1075.665 8
  21381570.910 7  -4941934.38907        45.000 7      3545.052 7
  25191443.584 7   2575851.06707        45.000 7     -2049.999 7
  25296169.618 6  -2692638.54506        37.000 6      4615.380 6
  23406437.899 7  -3130663.19807        46.000 7      2032.941 7
  20307720.283 7  -2532767.60307        46.000 7      1546.336 7
 12 12 12 12 13 19.0000000  0 12G01G03G06G11G14G17G19G20G22G23G28G32
  20681111.806 7  -2831390.21807        47.000 7      2006.789 7
  23508878.408 7   2892194.73807        46.000 7     -2409.111 7
  24742136.425 4   2706068.50534        29.000 4     -2217.671 4
  20210127.602 7  -1856895.36107        44.000 7      1162.464 7
  23631452.402 7   -599934.36807        44.000 7        51.448 7
  25871038.388 5   -936677.83905        32.000 5      4710.067 5
  21661205.781 8    995455.69208        48.000 8     -1076.473 8
  21380896.459 7  -4945478.41907        45.000 7      3543.579 7
  25191834.469 7   2577901.35407        45.000 7     -2050.539 7
  25295291.453 6  -2697253.27606        37.000 6      4615.187 6
  23406051.203 7  -3132695.49307        46.000 7      2032.370 7
  20307426.666 7  -2534312.76607        46.000 7      1544.731 7
 12 12 12 12 13 20.0000000  0 12G01G03G06G11G14G17G19G20G22G23G28G32
  20680730.449 7  -2833397.11407        46.000 7      2006.995 7
  23509336.912 7   2894603.47707        46.000 7     -2408.402 7
  24742557.848 4   2708284.21524        29.000 4     -2214.010 4
  20209906.019 7  -1858057.73307        44.000 7      1163.135 7
  23631442.420 7   -599986.02707        44.000 7        51.788 7
