     3.02           OBSERVATION DATA    M (MIXED)           RINEX VERSION / TYPE
NetR9 4.80          Receiver Operator   15-JUN-13 00:00:00  PGM / RUN BY / DATE
GMSD                                                        MARKER NAME
21749S002                                                   MARKER NUMBER
GEODETIC                                                    MARKER TYPE
GMSD                JAXA                                    OBSERVER / AGENCY
5049K72188          TRIMBLE NETR9       4.80                REC # / TYPE / VERS
4938353448          TRM59800.00     SCIS                    ANT # / TYPE
 -3607665.3832  4147868.2600  3223717.2637                  APPROX POSITION XYZ
        0.0000        0.0000        0.0000                  ANTENNA: DELTA H/E/N
G   12 C1C L1C S1C C2W L2W S2W C2X L2X S2X C5X L5X S5X      SYS / # / OBS TYPES
R   12 C1C L1C S1C C1P L1P S1P C2C L2C S2C C2P L2P S2P      SYS / # / OBS TYPES
E   12 C1X L1X S1X C5X L5X S5X C7X L7X S7X C8X L8X S8X      SYS / # / OBS TYPES
J   15 C1C L1C S1C C1X L1X S1X C2X L2X S2X C5X L5X S5X C6X  SYS / # / OBS TYPES
       L6X S6X                                              SYS / # / OBS TYPES
C    9 C2I L2I S2I C7I L7I S7I C6I L6I S6I                  SYS / # / OBS TYPES
    30.000                                                  INTERVAL
  2013     6    15     4     0    0.0000000     GPS         TIME OF FIRST OBS
G L2X -0.25000                                              SYS / PHASE SHIFT
R L1P  0.25000                                              SYS / PHASE SHIFT
R L2C -0.25000                                              SYS / PHASE SHIFT
J L2X -0.25000                                              SYS / PHASE SHIFT
GIOVE-A if present is mapped to satellite ID 51             COMMENT
GIOVE-B if present is mapped to satellite ID 52             COMMENT
DBHZ                                                        SIGNAL STRENGTH UNIT
                                                            END OF HEADER
> 2013  6 15  4  0  0.0000000  0 32
R21  22585468.500 7 120859940.538 7        44.300    22585467.063 7 120859665.547 7        43.000    22585475.984 6  94001875.227 6        36.200    22585476.613 5  94001883.223 5        35.600
R08  21665357.516 8 116017235.257 8        49.500    21665356.520 7 116017145.267 7        47.500    21665363.535 7  90235558.930 7        44.600    21665363.629 7  90235550.937 7        44.400
G21  25112295.359 5 131966023.234 5        33.900    25112311.836 2 102830710.57242        13.900
R09  21798921.930 8 116404797.882 8        48.800    21798920.965 7 116405040.889 7        47.300    21798927.543 6  90537270.161 6        41.500    21798928.016 6  90537266.165 6        41.100
G16  21770214.141 8 114403352.013 8        49.200    21770223.160 6  89145537.95846        36.400
G31  20898690.969 8 109823617.733 8        52.000    20898699.059 7  85576759.12647        43.800    20898699.066 8  85576761.119 8        49.500
G25  25027628.094 5 131521070.909 5        33.600    25027643.137 2 102484003.45142        16.900    25027644.031 6 102484003.454 6        36.400    25027645.512 6  98213830.219 6        40.600
G03  24851136.570 6 130593620.033 6        38.600    24851153.461 3 101761351.17743        19.300
G32  24209932.031 6 127224039.721 6        40.800    24209944.496 3  99135676.39943        23.800
G20  24900453.680 6 130852749.611 6        37.200    24900466.586 3 101963227.43543        18.600
R20  20303062.977 7 108569727.248 7        46.000    20303061.938 7 108569677.260 7        45.100    20303070.695 7  84443175.934 7        47.900    20303070.098 7  84443170.937 7        47.100
G14  21969332.820 7 115449587.466 7        45.800    21969342.715 5  89960815.51045        33.600
R07  23372224.492 7 125113341.790 7        42.800    23372224.273 6 125113301.798 6        41.300    23372236.758 6  97310354.786 6        39.400    23372237.129 6  97310348.784 6        38.200
G29  22362843.281 7 117517589.360 7        46.300    22362853.098 5  91572222.32045        35.800    22362853.008 7  91572216.311 7        43.700
R10  20618214.922 8 109906669.491 8        52.300    20618213.367 8 109906734.491 8        51.000    20618223.250 6  85483089.414 6        41.500    20618222.695 6  85483081.418 6        41.400
G23  25044043.844 6 131607353.684 6        39.200    25044054.121 3 102551220.08543        20.100
R11  22941722.188 7 122593546.869 7        43.400    22941721.371 7 122593598.863 7        42.300    22941731.094 6  95350677.306 6        36.000    22941730.445 5  95350673.314 5        35.100
R19  21329606.367 8 114098979.382 8        49.100    21329604.969 7 114099071.390 7        47.900    21329609.809 7  88743751.199 7        44.300    21329610.832 7  88743749.204 7        43.500
R01  22922008.492 7 122531286.374 7        44.500    22922007.117 7 122531279.401 7        43.000    22922015.992 6  95302131.379 6        37.000    22922017.004 5  95302120.398 5        35.900
G06  22833583.055 7 119991366.984 7        43.800    22833594.934 4  93499872.17444        28.700
J01  37303144.328 6 196029484.377 6        38.900    37303145.113 6 196029223.360 6        41.000    37303158.855 6 152750315.886 6        38.100    37303165.715 6 146385756.219 6        41.300    37303151.69515 159114783.30715        31.400
E12  25640687.914 7 134742793.581 7        44.900    25640696.660 7 100619702.205 7        44.700    25640692.816 7 103244537.859 7        43.600    25640694.809 8 101932124.138 8        50.600
C01  36697309.703 7 191092527.043 7        44.300    36697302.652 8 147764841.961 8        48.200    36697297.098 7 155278330.692 7        47.000
C02  39033180.211 5 203256037.805 5        35.900    39033179.043 6 157170453.785 6        41.100    39033173.816 6 165162161.480 6        39.900
C03  37220154.789 7 193815090.682 7        42.600    37220151.480 7 149870092.057 7        47.000    37220145.727 8 157490626.591 8        48.300
C04  37510097.680 6 195324939.274 6        40.700    37510095.078 7 151037616.330 7        45.200    37510088.555 7 158717513.110 7        45.100
C07  36056207.273 7 187754141.846 7        47.000    36056203.164 8 145183387.490 8        49.800    36056194.113 8 152565598.808 8        50.300
C10  37339055.117 7 194434270.555 7        44.900    37339053.957 7 150348917.412 7        46.200    37339044.219 7 157993728.860 7        46.300
C06  40962071.883 5 213300247.159 5        31.800    40962079.430 5 164937295.735 5        34.300    40962068.473 5 173323890.386 5        34.500
C14  25508362.891 6 132828736.277 6        37.500    25508364.441 6 102711604.534 6        40.400    25508354.227 7 107934191.721 7        42.300
C08  37481645.453 7 195176806.364 7        44.300    37481643.148 7 150923112.557 7        45.800    37481634.574 7 158597120.963 7        46.900
C09  40412834.172 6 210440241.031 6        37.500    40412839.500 6 162725772.975 6        38.700    40412828.586 6 170999915.928 6        36.200
> 2013  6 15  4  0 30.0000000  0 32
R21  22561545.945 7 120731922.645 7        44.100    22561543.922 7 120731647.661 7        43.000    22561552.398 5  93902305.960 5        34.800    22561552.781 5  93902313.964 5        34.900
R08  21677318.672 8 116081286.801 8        49.100    21677317.559 7 116081196.825 7        47.800    21677325.008 7  90285376.714 7        43.500    21677324.961 7  90285368.714 7        43.400
G21  25102960.992 5 131916969.179 5        33.100    25102976.102 2 102792486.71442        14.800
R09  21806856.570 8 116447172.796 8        48.500    21806855.605 7 116447415.796 7        46.600    21806861.934 6  90570228.351 6        41.400    21806863.219 6  90570224.348 6        41.500
G16  21760809.867 8 114353930.992 8        49.800    21760818.625 6  89107028.12446        36.800
G31  20898315.141 8 109821644.386 8        52.000    20898324.102 7  85575221.44947        43.700    20898323.656 8  85575223.443 8        50.300
G25  25044447.56315 131609453.27315        31.900    25044462.21512 102552872.77052        16.300    25044461.89815 102552872.81615        35.500    25044463.06616  98279829.98716        41.100
G03  24828800.648 5 130476254.225 5        34.300    24828819.078 2 101669897.76142        17.400
G32  24217940.070 6 127266120.277 6        41.100    24217952.652 3  99168466.33043        22.500
G20  24904491.453 6 130873967.259 6        36.400    24904504.637 3 101979760.52443        19.300
R20  20290497.781 7 108502535.426 7        47.100    20290496.742 7 108502485.431 7        45.700    20290505.180 8  84390915.669 8        48.100    20290504.906 7  84390910.678 7        47.600
G14  21986515.422 7 115539885.813 7        44.500    21986526.484 5  90031177.78645        34.000
R07  23394211.242 7 125231034.874 7        42.400    23394210.672 6 125230994.862 6        41.300    23394223.613 6  97401893.426 6        39.400    23394224.020 6  97401887.423 6        39.500
G29  22374640.563 7 117579585.139 7        46.200    22374649.918 5  91620530.70645        35.500    22374650.129 7  91620524.695 7        43.600
R10  20614367.070 8 109886157.936 8        52.800    20614366.102 8 109886222.929 8        50.800    20614374.582 7  85467135.984 7        42.000    20614374.887 6  85467127.988 6        41.500
G23  25023924.789 6 131501627.944 6        37.900    25023934.715 2 102468836.53942        17.800
R11  22929615.539 7 122528851.132 7        42.800    22929614.137 6 122528903.132 6        41.100    22929623.137 6  95300358.477 6        36.500    22929623.516 5  95300354.485 5        34.800
R19  21339190.867 8 114150248.038 8        49.600    21339189.234 8 114150340.052 8        48.100    21339194.785 7  88783626.806 7        44.300    21339194.832 7  88783624.810 7        44.100
R01  22915504.141 7 122496516.489 7        44.900    22915502.531 7 122496509.479 7        42.800    22915510.402 6  95275088.138 6        36.300    22915512.035 6  95275077.150 6        36.200
G06  22813272.094 7 119884634.008 7        43.800    22813284.734 4  93416703.73244        28.500
J01  37302784.891 6 196027593.485 6        38.200    37302785.109 6 196027332.475 6        41.100    37302798.410 6 152748842.456 6        37.400    37302805.375 6 146384344.177 6        41.300    37302790.945 5 159113248.387 5        32.300
E12  25624450.586 7 134657467.598 7        45.300    25624459.676 7 100555984.835 7        44.900    25624456.207 7 103179158.290 7        44.000    25624457.680 8 101867575.668 8        50.900
C01  36697319.766 7 191092580.904 7        44.500    36697313.078 8 147764883.599 8        48.000    36697307.559 7 155278374.446 7        47.600
C02  39033268.102 6 203256491.926 6        36.100    39033266.215 6 157170804.913 6        41.400    39033260.828 6 165162530.466 6        39.200
C03  37220046.742 7 193814526.838 7        42.600    37220043.555 7 149869656.048 7        46.800    37220037.539 7 157490168.420 7        47.300
C04  37510093.953 6 195324920.298 6        40.900    37510091.645 7 151037601.642 7        45.400    37510085.313 7 158717497.676 7        44.900
C07  36053548.773 7 187740298.452 7        46.600    36053544.781 8 145172682.892 8        49.800    36053535.723 8 152554349.910 8        49.800
C10  37335376.781 7 194415117.497 7        45.000    37335375.910 7 150334107.059 7        45.600    37335365.840 7 157978165.438 7        46.000
C06  40969836.648 5 213340678.540 5        32.600    40969843.789 5 164968559.839 5        34.500    40969832.793 5 173356744.200 5        34.900
C14  25511866.773 6 132846979.628 6        37.600    25511867.840 6 102725711.369 6        40.100    25511857.695 6 107949015.874 6        41.400
C08  37475093.992 7 195142691.297 7        44.200    37475091.590 7 150896732.626 7        46.000    37475082.973 7 158569399.679 7        47.000
C09  40423464.359 6 210495596.595 6        37.500    40423470.297 6 162768577.195 6        38.200    40423459.457 6 171044896.688 6        38.100
> 2013  6 15  4  1  0.0000000  0 32
R21  22537646.273 7 120604034.026 7        44.600    22537645.070 7 120603759.040 7        43.400    22537653.348 5  93802837.241 5        35.800    22537654.074 5  93802845.245 5        35.100
R08  21689382.156 8 116145885.815 8        48.600    21689381.043 7 116145795.823 7        47.300    21689388.148 7  90335620.315 7        43.100    21689388.066 7  90335612.315 7        43.000
G21  25093627.078 5 131867924.948 5        34.900    25093642.41412 102754270.49552        16.300
R09  21814815.102 8 116489664.975 8        48.500    21814814.137 7 116489907.982 7        47.000    21814819.996 6  90603277.731 6        41.800    21814821.367 6  90603273.744 6        41.000
G16  21751468.469 8 114304844.836 8        49.400    21751477.789 6  89068779.20746        37.100
G31  20897976.148 8 109819862.746 8        51.600    20897984.387 7  85573833.14347        44.000    20897984.344 8  85573835.144 8        49.700
G25  25061250.242 5 131697746.921 5        35.600    25061263.535 2 102621672.94642        17.400    25061263.766 5 102621672.955 5        34.300    25061264.855 6  98345763.463 6        41.400
G03  24806469.406 6 130358896.035 6        37.300    24806485.828 3 101578450.32443        18.300
G32  24226002.742 6 127308492.109 6        40.900    24226015.457 3  99201483.21143        22.800
G20  24908602.164 5 130895570.106 5        34.000    24908615.711 3 101996593.87643        20.100
R20  20278059.531 7 108436020.345 7        47.500    20278058.961 7 108435970.350 7        45.600    20278067.227 8  84339181.769 8        48.000    20278067.199 7  84339176.772 7        47.700
G14  22003764.109 7 115630525.901 7        44.500    22003774.637 5  90101806.34145        32.800
R07  23416189.703 6 125348693.849 6        39.900    23416188.898 6 125348653.837 6        38.800    23416203.727 6  97493405.479 6        40.900    23416203.895 6  97493399.480 6        39.800
G29  22386526.867 7 117642048.605 7        45.200    22386536.906 5  91669203.51145        35.200    22386536.820 7  91669197.502 7        43.700
R10  20610536.383 8 109865735.094 8        53.000    20610534.828 8 109865800.088 8        50.200    20610543.922 6  85451251.557 6        41.700    20610543.789 6  85451243.560 6        41.100
G23  25003830.375 6 131396028.636 6        40.300    25003839.887 3 102386551.47243        19.000
R11  22917499.766 7 122464111.297 7        42.500    22917498.949 6 122464163.288 6        40.600    22917508.352 5  95250005.372 5        35.400    22917508.180 5  95250001.380 5        34.600
R19  21348911.039 8 114202250.009 8        48.800    21348910.578 8 114202342.025 8        48.100    21348916.188 7  88824072.780 7        43.900    21348916.406 7  88824070.792 7        43.700
R01  22909130.992 7 122462445.960 7        43.800    22909128.676 7 122462438.967 7        42.600    22909137.805 6  95248588.833 6        36.800    22909138.652 5  95248577.845 5        35.600
G06  22792999.773 7 119778103.510 7        43.400    22793012.566 4  93333693.08844        28.300
J01  37302414.500 6 196025645.262 6        37.400    37302414.359 6 196025384.260 6        41.600    37302427.859 6 152747324.345 6        37.300    37302434.473 6 146382889.320 6        41.600    37302420.57015 159111667.28515        31.500
E12  25608232.992 7 134572243.994 7        45.400    25608242.254 7 100492343.921 7        45.700    25608238.031 7 103113857.167 7        43.600    25608240.051 8 101803104.651 8        50.900
C01  36697330.609 7 191092638.090 7        44.300    36697324.117 8 147764927.807 8        48.500    36697318.766 7 155278420.906 7        47.500
C02  39033356.055 6 203256948.704 6        36.000    39033353.582 6 157171158.099 6        40.500    39033348.262 6 165162901.620 6        39.200
C03  37219938.547 7 193813965.585 7        42.600    37219935.523 7 149869222.049 7        47.300    37219929.605 8 157489712.337 8        48.400
C04  37510090.750 6 195324903.502 6        40.900    37510088.691 7 151037588.632 7        45.100    37510082.277 7 158717484.007 7        45.500
C07  36050891.031 7 187726457.651 7        47.200    36050886.570 8 145161980.306 8        50.000    36050877.590 8 152543103.123 8        50.500
C10  37331692.625 7 194395933.557 7        45.900    37331691.813 7 150319272.829 7        46.500    37331681.871 7 157962576.923 7        46.300
C06  40977576.570 5 213380983.277 5        32.200    40977583.832 5 164999726.033 5        34.600    40977572.785 5 173389495.118 5        34.800
C14  25515444.070 6 132865610.736 6        37.100    25515445.414 6 102740118.061 6        40.000    25515435.137 7 107964155.122 7        42.000
C08  37468565.977 7 195108696.917 7        44.600    37468563.227 7 150870446.023 7        46.200    37468554.813 7 158541776.458 7        47.000
C09  40434085.203 6 210550898.487 6        37.500    40434090.566 6 162811339.909 6        37.900    40434079.832 6 171089833.829 6        37.600
> 2013  6 15  4  1 30.0000000  0 33
R21  22513771.945 7 120476277.103 7        45.100    22513770.980 7 120476002.112 7        43.800    22513780.059 6  93703470.960 6        36.800    22513780.133 6  93703478.963 6        36.200
R08  21701546.336 8 116211026.899 8        48.600    21701545.340 7 116210936.923 7        47.200    21701552.887 7  90386285.530 7        43.700    21701553.055 7  90386277.536 7        43.600
G21  25084296.219 5 131818891.318 5        35.700    25084311.070 2 102716062.55842        16.900
R09  21822793.961 8 116532273.435 8        48.200    21822792.410 7 116532516.452 7        46.800    21822798.301 7  90636417.585 7        42.500    21822800.188 6  90636413.588 6        41.200
G16  21742191.320 8 114256091.742 8        49.700    21742200.211 6  89030789.83246        37.000
G31  20897673.594 8 109818272.418 8        51.100    20897681.746 7  85572593.91747        43.900    20897681.684 8  85572595.918 8        49.200
G25  25078032.54715 131785949.57315        32.000    25078049.11712 102690402.24252        16.900    25078048.48415 102690402.25915        35.800    25078049.73816  98411629.03116        41.100
G03  24784138.352 6 130241546.324 6        39.000    24784155.590 3 101487009.45343        20.600
G32  24234121.008 6 127351151.325 6        40.600    24234133.363 3  99234724.07043        22.900
G20  24912786.20315 130917554.99415        35.100    24912799.40213 102013724.87253        19.900
R20  20265748.164 7 108370183.781 7        47.200    20265746.773 7 108370133.786 7        45.300    20265755.262 8  84287975.603 8        48.100    20265755.164 8  84287970.605 8        48.000
G14  22021076.828 7 115721503.753 7        45.200    22021086.922 5  90172698.09445        33.700
R07  23438163.102 6 125466313.006 6        41.400    23438162.180 6 125466273.044 6        40.400    23438177.555 6  97584886.544 6        38.700    23438176.758 6  97584880.538 6        38.500
G29  22398501.844 7 117704976.256 7        47.000    22398511.348 5  91718238.01545        35.500    22398511.281 7  91718232.007 7        44.000
R10  20606721.633 8 109845401.028 8        52.400    20606720.078 8 109845466.021 8        51.000    20606728.641 6  85435436.175 6        41.300    20606728.832 6  85435428.179 6        41.500
G23  24983759.492 6 131290557.055 6        40.700    24983768.191 3 102304365.88443        19.000
R11  22905375.500 6 122399326.199 6        41.400    22905374.566 6 122399378.204 6        40.800    22905384.398 6  95199617.066 6        36.100    22905384.035 5  95199613.072 5        35.300
R19  21358769.109 8 114254981.773 8        49.500    21358767.945 8 114255073.787 8        48.000    21358773.520 7  88865086.378 7        44.200    21358774.059 7  88865084.380 7        43.700
R01  22902886.727 7 122429073.874 7        43.900    22902885.703 7 122429066.897 7        42.400    22902895.215 6  95222632.785 6        36.900    22902896.238 6  95222621.793 6        36.400
G06  22772766.805 7 119671776.787 7        43.400    22772779.176 4  93250841.20844        28.400
J01  37302032.969 6 196023638.308 6        39.600    37302032.699 6 196023377.307 6        41.100    37302046.355 6 152745760.478 6        37.400    37302052.668 6 146381390.615 6        41.700    37302038.824 5 159110038.064 5        30.900
E12  25592035.055 7 134487123.174 7        45.500    25592043.844 7 100428779.768 7        45.300    25592040.094 7 103048634.803 7        43.800    25592041.984 8 101738711.392 8        50.900
C01  36697342.086 7 191092697.102 7        44.300    36697335.652 8 147764973.430 8        48.000    36697329.902 7 155278468.845 7        47.500
C02  39033443.984 6 203257406.712 6        36.100    39033442.082 6 157171512.223 6        41.600    39033436.699 6 165163273.764 6        40.000
C03  37219831.211 7 193813405.350 7        42.500    37219828.066 7 149868788.817 7        47.900    37219821.988 7 157489257.093 7        47.800
C04  37510087.813 6 195324887.332 6        40.900    37510085.633 7 151037576.112 7        45.400    37510079.133 7 158717470.860 7        45.200
C07  36048233.102 7 187712618.434 7        46.600    36048228.859 8 145151278.938 8        50.100    36048219.840 8 152531857.619 8        49.900
C10  37328002.656 7 194376717.580 7        44.900    37328001.594 7 150304413.832 7        45.600    37327991.750 7 157946962.383 7        46.200
C06  40985291.03115 213421159.34915        31.800    40985299.52315 165030792.73415        35.200    40985288.59815 173422141.47415        34.000
C14  25519095.906 6 132884626.546 6        38.000    25519097.695 6 102754822.214 6        41.300    25519087.574 7 107979606.957 7        42.500
C08  37462060.102 7 195074821.967 7        44.100    37462057.891 7 150844251.767 7        46.200    37462049.160 7 158514250.296 7        47.300
C09  40444694.633 6 210606144.661 6        37.700    40444700.605 6 162854059.538 6        38.100    40444689.953 6 171134725.688 6        38.300
C05  40900072.03115 212977343.94815        32.200    40900076.25815 164687655.12515        34.800    40900069.42616 173061577.98016        36.600
> 2013  6 15  4  2  0.0000000  0 32
R21  22489922.984 7 120348656.606 7        44.800    22489921.902 7 120348381.637 7        43.600    22489929.715 6  93604210.803 6        36.000    22489930.574 5  93604218.799 5        35.300
R08  21713812.508 8 116276706.771 8        49.200    21713811.043 7 116276616.780 7        47.300    21713818.000 7  90437369.786 7        43.400    21713818.168 7  90437361.785 7        43.000
G21  25074968.477 6 131769871.469 6        36.200    25074983.055 2 102677865.38242        17.400
R09  21830795.242 8 116574999.688 8        48.100    21830794.160 7 116575242.698 7        46.500    21830800.582 7  90669649.042 7        43.000    21830802.293 7  90669645.047 7        42.300
G16  21732977.250 8 114207671.950 8        50.200    21732986.223 6  88993060.17046        36.800
G31  20897408.031 8 109816874.752 8        52.300    20897415.945 7  85571504.81547        43.600    20897415.809 8  85571506.816 8        48.600
G25  25094802.37515 131874061.20815        35.700    25094816.34412 102759060.55352        15.600    25094815.72315 102759060.60915        34.900    25094816.96116  98477426.58316        41.900
G03  24761808.773 6 130124207.582 6        38.700    24761826.074 3 101395577.13743        20.600
G32  24242293.320 6 127394096.010 6        39.800    24242305.152 4  99268187.35744        24.200
G20  24917042.078 6 130939920.389 6        38.300    24917055.855 3 102031152.36043        21.700
R20  20253562.898 7 108305029.711 7        47.200    20253562.797 7 108304979.731 7        46.000    20253571.211 8  84237300.266 8        48.000    20253571.059 7  84237295.269 7        47.500
G14  22038453.844 7 115812817.683 7        45.800    22038463.711 5  90243851.72345        34.400
R07  23460128.164 7 125583888.530 7        43.400    23460127.594 7 125583848.542 7        42.600    23460140.324 6  97676333.744 6        37.100    23460139.914 6  97676327.750 6        36.400
G29  22410564.938 7 117768366.439 7        45.300    22410574.633 5  91767632.94745        35.200    22410574.516 7  91767626.944 7        44.400
R10  20602923.305 8 109825156.838 8        52.400    20602921.984 8 109825221.838 8        50.800    20602930.875 6  85419690.687 6        41.800    20602930.828 6  85419682.698 6        40.900
G23  24963712.992 6 131185216.066 6        39.000    24963723.047 3 102222282.05743        19.000
R11  22893244.977 7 122334495.961 7        42.500    22893242.984 6 122334547.970 6        40.900    22893252.211 6  95149193.635 6        36.000    22893251.980 5  95149189.643 5        35.500
R19  21368762.836 8 114308441.546 8        49.700    21368762.023 7 114308533.544 7        47.500    21368767.051 7  88906666.186 7        44.400    21368768.039 7  88906664.195 7        43.600
R01  22896775.453 7 122396401.712 7        43.900    22896774.898 7 122396394.720 7        42.500    22896783.777 5  95197221.086 5        35.200    22896784.543 5  95197210.090 5        35.800
G06  22752572.859 7 119565656.874 7        43.700    22752585.082 4  93168150.49144        29.600
J01  37301639.938 6 196021573.305 6        39.200    37301639.805 6 196021312.296 6        41.100    37301652.965 6 152744151.367 6        36.900    37301660.188 6 146379848.554 6        41.600    37301645.75815 159108361.95615        32.100
E12  25575857.523 7 134402107.564 7        45.500    25575865.797 7 100365294.172 7        45.100    25575862.090 7 102983493.047 7        43.900    25575863.922 8 101674397.718 8        51.000
C01  36697353.664 7 191092758.494 7        44.500    36697347.152 8 147765020.888 8        48.100    36697341.590 7 155278518.722 7        47.800
C02  39033532.289 5 203257866.403 5        35.800    39033530.250 6 157171867.658 6        40.900    39033524.879 6 165163647.277 6        39.600
C03  37219723.570 7 193812846.721 7        42.600    37219720.473 7 149868356.839 7        46.900    37219714.570 7 157488803.155 7        47.300
C04  37510084.875 6 195324872.348 6        40.900    37510082.098 7 151037564.517 7        45.500    37510076.027 7 158717458.673 7        45.400
C07  36045576.336 8 187698781.684 8        48.000    36045572.016 8 145140579.478 8        50.100    36045563.082 8 152520614.125 8        50.000
C10  37324306.813 7 194357470.391 7        45.500    37324305.148 7 150289530.687 7        46.000    37324295.301 7 157931322.464 7        45.900
C06  40992982.773 5 213461206.854 5        32.400    40992989.855 5 165061760.006 5        34.900    40992979.750 5 173454683.351 5        34.700
C14  25522820.664 6 132904026.290 6        38.000    25522823.371 7 102769823.250 7        42.000    25522812.965 6 107995370.789 6        41.800
C08  37455578.492 7 195041067.195 7        45.000    37455575.828 7 150818150.445 7        46.200    37455567.273 7 158486821.788 7        46.700
C09  40455293.688 6 210661334.929 6        37.200    40455299.262 6 162896735.933 6        38.100    40455288.621 6 171179572.114 6        37.700
> 2013  6 15  4  2 30.0000000  0 33
R21  22466099.539 7 120221177.183 7        45.300    22466099.043 7 120220902.212 7        43.700    22466106.734 5  93505060.306 5        35.000    22466107.707 5  93505068.301 5        34.700
R08  21726176.781 8 116342921.489 8        48.600    21726176.254 7 116342831.498 7        47.200    21726183.035 7  90488870.019 7        43.900    21726183.016 7  90488862.024 7        43.100
G21  25065642.922 6 131720867.597 6        36.500    25065657.195 2 102639680.58042        16.900
R09  21838818.563 7 116617845.071 7        47.900    21838817.832 7 116618088.088 7        46.600    21838824.582 7  90702973.157 7        42.300    21838825.965 6  90702969.155 6        41.800
G16  21723826.555 8 114159585.161 8        49.700    21723835.355 6  88955589.99246        37.200
G31  20897178.852 8 109815671.006 8        51.500    20897186.797 7  85570566.82847        43.600    20897186.277 8  85570568.822 8        49.900
G25  25111550.477 5 131962081.059 5        33.900    25111564.938 2 102827647.39642        17.400    25111565.469 5 102827647.392 5        35.200    25111566.844 7  98543155.581 7        43.400
G03  24739481.734 6 130006882.682 6        36.400    24739499.016 2 101304155.56842        17.800
G32  24250518.625 6 127437323.920 6        41.300    24250531.883 3  99301871.33343        23.500
G20  24921371.250 6 130962664.319 6        38.400    24921382.949 3 102048874.82343        20.100
R20  20241506.563 7 108240561.794 7        46.900    20241506.578 7 108240511.799 7        45.800    20241514.938 8  84187158.589 8        48.200    20241514.754 8  84187153.599 8        48.200
G14  22055893.672 7 115904465.555 7        44.700    22055903.543 5  90315265.55445        33.600
R07  23482083.063 7 125701416.700 7        42.300    23482082.727 6 125701376.700 6        40.600    23482096.477 6  97767744.104 6        37.600    23482096.176 6  97767738.109 6        38.000
G29  22422714.703 7 117832216.983 7        46.200    22422724.918 5  91817386.59145        34.900    22422724.922 7  91817380.586 7        44.000
R10  20599142.781 8 109805003.347 8        52.700    20599141.344 8 109805068.340 8        50.400    20599150.359 7  85404015.759 7        42.100    20599150.332 6  85404007.762 6        41.300
G23  24943692.828 6 131080008.506 6        40.000    24943702.734 3 102140302.27943        21.300
R11  22881103.109 7 122269620.404 7        42.300    22881102.527 6 122269672.395 6        40.400    22881111.805 6  95098734.966 6        36.300    22881112.070 5  95098730.970 5        35.300
R19  21378893.047 8 114362627.261 8        50.000    21378891.297 8 114362719.267 8        48.200    21378896.398 7  88948810.623 7        44.300    21378896.785 7  88948808.626 7        43.500
R01  22890794.430 7 122364430.365 7        43.700    22890792.820 7 122364423.395 7        42.800    22890801.816 6  95172354.479 6        36.700    22890803.340 5  95172343.488 5        35.500
G06  22732418.297 7 119459746.644 7        42.800    22732430.461 4  93085623.16644        29.700
J01  37301235.203 6 196019450.216 6        38.500    37301235.586 6 196019189.207 6        40.200    37301248.871 6 152742497.007 6        36.100    37301255.574 7 146378263.124 7        42.100    37301241.20315 159106638.63015        31.500
E12  25559699.617 7 134317199.118 7        45.400    25559708.164 7 100301888.607 7        45.300    25559704.648 7 102918433.414 7        44.000    25559706.414 8 101610165.120 8        51.000
C01  36697366.078 7 191092822.357 7        44.600    36697359.355 7 147765070.257 7        47.300    36697353.832 7 155278570.609 7        47.400
C02  39033620.602 6 203258327.844 6        36.100    39033618.816 6 157172224.452 6        40.600    39033613.391 6 165164022.218 6        39.100
C03  37219617.141 7 193812289.704 7        42.600    37219613.711 7 149867926.107 7        46.300    37219607.637 7 157488350.522 7        47.200
C04  37510082.242 6 195324858.555 6        40.900    37510079.742 7 151037553.836 7        45.500    37510073.316 7 158717447.451 7        45.800
C07  36042919.641 8 187684948.073 8        48.200    36042915.523 8 145129882.454 8        49.700    36042906.465 8 152509373.182 8        49.700
C10  37320604.609 7 194338192.650 7        46.000    37320603.121 7 150274623.910 7        45.800    37320593.145 7 157915657.711 7        46.200
C06  41000647.719 5 213501125.421 5        32.600    41000655.402 5 165092627.577 5        34.700    41000645.293 5 173487120.468 5        34.600
C14  25526620.719 6 132923808.607 6        38.400    25526622.105 6 102785120.125 6        41.400    25526611.656 6 108011445.493 6        41.600
C08  37449119.031 7 195007432.934 7        45.600    37449116.793 7 150792142.315 7        46.400    37449107.922 7 158459491.207 7        46.800
C09  40465880.648 5 210716468.788 5        35.000    40465887.465 6 162939368.682 6        37.400    40465876.578 6 171224372.672 6        37.600
C05  40899883.92215 212976404.88315        32.300    40899887.16415 164686899.44215        33.400    40899880.40616 173060782.56016        36.100
> 2013  6 15  4  3  0.0000000  0 33
R21  22442303.820 7 120093843.303 7        44.800    22442303.090 7 120093568.300 7        43.700    22442311.324 6  93406023.015 6        36.200    22442312.254 5  93406031.011 5        35.400
R08  21738642.211 8 116409668.255 8        48.700    21738640.629 7 116409578.265 7        47.000    21738647.547 7  90540784.068 7        43.900    21738647.820 7  90540776.068 7        42.600
G21  25056322.766 6 131671883.047 6        37.500    25056335.461 2 102601510.90242        16.900
R09  21846864.867 7 116660811.119 7        47.400    21846863.668 7 116661054.118 7        47.000    21846870.238 7  90736391.122 7        42.800    21846871.395 7  90736387.126 7        42.100
G16  21714739.422 8 114111832.215 8        49.400    21714748.266 6  88918379.94846        36.800
G31  20896986.953 8 109814663.246 8        51.300    20896995.016 7  85569781.55947        43.900    20896994.660 8  85569783.560 8        49.500
G25  25128283.914 5 132050009.322 5        35.200    25128297.918 2 102896162.90642        16.300    25128297.520 6 102896162.902 6        37.900    25128300.176 7  98608816.248 7        43.200
G03  24717157.664 5 129889574.816 5        34.800    24717175.457 2 101212747.31542        16.900
G32  24258799.289 6 127480833.390 6        41.300    24258812.160 4  99335774.70044        24.100
G20  24925771.031 6 130985785.933 6        38.400    24925783.730 3 102066891.57643        19.900
R20  20229581.117 7 108176784.064 7        47.100    20229579.844 7 108176734.084 7        45.800    20229587.996 8  84137553.731 8        48.100    20229587.926 7  84137548.741 7        47.300
G14  22073396.969 7 115996446.015 7        44.400    22073407.090 5  90386938.54645        32.300
R07  23504030.305 6 125818894.339 6        39.400    23504028.563 6 125818854.380 6        38.400    23504042.750 6  97859115.071 6        39.500    23504042.438 6  97859109.076 6        39.300
G29  22434952.484 7 117896526.642 7        46.700    22434962.922 5  91867497.99045        34.000    22434962.625 7  91867491.992 7        43.700
R10  20595379.438 8 109784942.505 8        52.400    20595378.703 8 109785007.491 8        50.900    20595387.770 6  85388412.880 6        41.800    20595387.566 6  85388404.884 6        41.800
G23  24923698.188 6 130974937.684 6        40.400    24923708.082 3 102058429.03043        19.000
R11  22868954.203 7 122204700.286 7        42.900    22868953.387 6 122204752.315 6        41.600    22868961.906 5  95048241.615 5        35.200    22868962.426 5  95048237.616 5        34.800
R19  21389157.617 8 114417537.429 8        49.800    21389156.336 8 114417629.434 8        48.000    21389161.426 7  88991518.524 7        44.600    21389161.906 7  88991516.527 7        44.200
R01  22884943.672 7 122333161.632 7        42.900    22884943.469 6 122333154.622 6        41.400    22884951.984 5  95148034.349 5        35.700    22884953.316 5  95148023.353 5        35.300
G06  22712304.875 7 119354050.039 7        44.200    22712317.219 4  93003262.30044        29.400
J01  37300820.672 6 196017270.166 6        37.900    37300821.082 6 196017009.158 6        40.300    37300833.766 6 152740798.283 6        36.300    37300841.707 7 146376635.168 7        42.100    37300826.45715 159104869.15915        32.500
E12  25543562.945 7 134232400.648 7        45.600    25543571.156 7 100238565.164 7        45.100    25543567.734 7 102853458.043 7        44.200    25543569.500 8 101546015.709 8        50.900
C01  36697378.883 7 191092889.542 7        44.500    36697372.063 8 147765122.199 8        48.700    36697366.633 7 155278625.205 7        47.500
C02  39033709.852 5 203258791.930 5        35.700    39033708.129 6 157172583.291 6        41.400    39033702.629 6 165164399.305 6        39.200
C03  37219510.281 7 193811735.236 7        42.600    37219507.441 7 149867497.346 7        46.900    37219501.277 8 157487899.969 8        48.100
C04  37510080.078 6 195324846.927 6        40.900    37510077.836 7 151037544.831 7        45.500    37510071.426 7 158717437.992 7        45.800
C07  36040263.516 8 187671118.791 8        48.200    36040259.078 8 145119188.772 8        50.000    36040250.383 8 152498135.758 8        50.200
C10  37316896.477 7 194318885.450 7        45.800    37316895.211 7 150259694.360 7        46.000    37316885.305 7 157899969.037 7        46.400
C06  41008289.438 5 213540915.465 5        32.500    41008296.824 5 165123395.790 5        34.200    41008286.730 5 173519453.152 5        34.900
C14  25530493.094 6 132943973.000 6        39.000    25530494.836 7 102800712.461 7        42.200    25530483.977 6 108027830.664 6        41.300
C08  37442683.594 7 194973920.226 7        45.400    37442680.707 7 150766228.176 7        46.300    37442672.203 7 158432259.406 7        47.000
C09  40476457.922 5 210771546.649 5        35.500    40476465.129 6 162981958.122 6        38.200    40476453.727 6 171269127.740 6        37.600
C05  40899789.56315 212975890.08915        32.400    40899792.90215 164686520.60515        34.100    40899785.75015 173060379.75015        35.200
> 2013  6 15  4  3 30.0000000  0 33
R21  22418536.563 7 119966658.584 7        44.900    22418535.598 7 119966383.591 7        43.100    22418544.215 6  93307101.744 6        36.500    22418544.578 5  93307109.748 5        35.300
R08  21751204.859 8 116476941.685 8        48.500    21751203.980 7 116476851.709 7        47.100    21751211.426 7  90593107.742 7        44.100    21751211.297 7  90593099.744 7        43.800
G21  25047003.617 5 131622918.831 5        35.700    25047017.699 2 102563357.04742        15.600
R09  21854933.328 8 116703897.724 8        48.800    21854933.188 7 116704140.731 7        47.000    21854939.582 7  90769902.856 7        43.000    21854941.004 6  90769898.860 6        41.900
G16  21705715.602 8 114064411.321 8        49.100    21705724.363 6  88881428.63346        36.900
G31  20896832.367 8 109813851.063 8        52.600    20896840.219 7  85569148.68447        44.400    20896840.133 8  85569150.685 8        49.300
G25  25144997.828 5 132137844.141 5        34.500    25145012.305 2 102964605.46842        17.400    25145012.207 6 102964605.500 6        38.200    25145014.973 7  98674407.054 7        44.200
G03  24694839.305 6 129772284.793 6        37.900    24694855.508 3 101121352.94243        19.300
G32  24267131.563 6 127524620.796 6        41.100    24267144.348 4  99369894.65544        25.300
G20  24930242.102 6 131009282.386 6        39.200    24930254.891 3 102085200.40443        19.600
R20  20217783.219 7 108113698.792 7        47.300    20217782.531 7 108113648.812 7        46.400    20217790.984 8  84088487.449 8        48.100    20217790.641 7  84088482.452 7        47.700
G14  22090962.367 7 116088755.148 7        45.000    22090972.879 5  90458867.64945        32.500
R07  23525965.500 7 125936316.235 7        42.400    23525965.164 6 125936276.236 6        41.000    23525979.133 6  97950442.691 6        39.700    23525978.980 6  97950436.689 6        39.400
G29  22447277.117 7 117961292.114 7        47.200    22447287.258 5  91917964.56845        34.200    22447286.820 7  91917958.565 7        43.900
R10  20591633.500 8 109764973.761 8        52.900    20591632.063 8 109765038.746 8        50.300    20591641.563 7  85372881.626 7        42.300    20591641.273 7  85372873.637 7        42.000
G23  24903729.828 6 130870005.152 6        39.100    24903740.430 2 101976663.47842        17.800
R11  22856797.852 7 122139734.224 7        42.900    22856796.449 7 122139786.238 7        42.100    22856804.449 5  94997712.533 5        35.300    22856804.797 5  94997708.538 5        34.300
R19  21399557.273 8 114473168.364 8        49.100    21399555.758 8 114473260.392 8        48.400    21399560.859 7  89034787.020 7        44.400    21399561.477 7  89034785.025 7        44.300
R01  22879225.773 7 122302594.755 7        43.400    22879224.984 7 122302587.759 7        42.600    22879233.285 6  95124260.093 6        36.100    22879235.852 5  95124249.105 5        35.300
G06  22692232.320 7 119248568.254 7        44.300    22692244.016 5  92921068.81745        30.000
J01  37300394.563 6 196015031.902 6        38.300    37300394.672 6 196014770.886 6        40.100    37300408.012 6 152739054.182 6        36.800    37300415.301 7 146374963.733 7        42.200    37300400.695 5 159103052.422 5        32.200
E12  25527447.172 7 134147712.806 7        46.200    25527455.066 7 100175324.323 7        44.700    25527452.395 7 102788567.445 7        44.400    25527453.945 8 101481949.990 8        50.900
C01  36697392.430 7 191092958.749 7        44.400    36697385.637 8 147765175.710 8        48.200    36697380.109 7 155278681.438 7        47.100
C02  39033799.383 6 203259257.432 6        36.100    39033797.559 6 157172943.213 6        41.700    39033792.324 6 165164777.535 6        39.200
C03  37219403.820 7 193811181.976 7        42.500    37219401.012 7 149867069.519 7        47.300    37219395.234 7 157487450.387 7        47.500
C04  37510078.289 6 195324836.137 6        40.800    37510075.426 7 151037536.478 7        45.400    37510069.285 7 158717429.224 7        45.600
C07  36037608.680 7 187657293.153 7        47.900    36037604.254 8 145108497.908 8        49.800    36037595.590 8 152486901.292 8        50.700
C10  37313182.844 7 194299547.783 7        45.900    37313181.824 7 150244741.257 7        46.400    37313171.711 7 157884255.597 7        46.100
C06  41015906.180 5 213580575.258 5        32.600    41015913.145 5 165154063.269 5        34.900    41015903.141 6 173551680.004 6        36.100
C14  25534438.547 6 132964516.688 6        38.800    25534440.012 7 102816598.058 7        42.100    25534429.430 6 108044524.049 6        41.200
C08  37436270.719 7 194940528.058 7        45.000    37436268.133 7 150740407.233 7        46.200    37436259.492 7 158405125.525 7        47.500
C09  40487025.344 6 210826566.278 6        37.500    40487031.441 6 163024502.543 6        38.100    40487019.754 6 171313835.517 6        36.600
C05  40899696.10915 212975415.12215        33.100    40899698.84015 164686153.53915        35.800    40899692.25015 173060062.17815        35.800
> 2013  6 15  4  4  0.0000000  0 32
R21  22394797.844 7 119839628.320 7        44.300    22394796.996 7 119839353.316 7        43.300    22394806.004 6  93208300.592 6        36.300    22394806.262 6  93208308.603 6        36.000
R08  21763864.945 8 116544738.933 8        48.300    21763863.715 7 116544648.957 7        46.200    21763871.504 7  90645838.844 7        44.900    21763872.109 7  90645830.844 7        43.900
G21  25037691.797 5 131573978.571 5        34.400    25037705.098 2 102525221.87542        17.800
R09  21863025.320 8 116747106.515 8        48.300    21863024.355 7 116747349.508 7        46.300    21863030.957 7  90803509.605 7        42.000    21863032.238 6  90803505.610 6        41.400
G16  21696754.805 8 114017323.104 8        49.700    21696763.395 6  88844736.55946        37.400
G31  20896715.234 8 109813236.397 8        51.200    20896723.277 7  85568669.72147        43.900    20896723.301 8  85568671.722 8        49.400
G25  25161691.64114 132225585.66114        29.400    25161709.37913 103032975.42353        18.300    25161708.99216 103032975.48016        37.100    25161710.93417  98739928.27717        42.700
G03  24672522.984 6 129655016.096 6        38.200    24672540.223 3 101029975.17543        20.600
G32  24275516.281 6 127568684.688 6        41.900    24275530.063 3  99404230.04243        22.800
G20  24934784.742 5 131033152.460 5        34.400    24934797.328 3 102103800.34243        19.900
R20  20206116.266 8 108051310.372 8        48.100    20206115.695 7 108051260.384 7        45.400    20206124.188 7  84039963.159 7        47.600    20206123.738 7  84039958.162 7        47.700
G14  22108590.523 7 116181391.686 7        44.800    22108600.824 5  90531051.87645        31.600
R07  23547890.680 7 126053679.275 7        43.000    23547889.289 6 126053639.268 6        41.500    23547903.598 6  98041724.583 6        38.900    23547903.555 6  98041718.581 6        38.000
G29  22459688.750 7 118026511.948 7        45.900    22459698.168 5  91968785.19645        33.700    22459697.938 7  91968779.194 7        43.800
R10  20587905.047 8 109745099.315 8        51.000    20587904.078 8 109745164.315 8        50.800    20587912.656 6  85357423.731 6        41.600    20587912.875 6  85357415.741 6        41.500
G23  24883789.320 6 130765214.505 6        39.200    24883798.488 3 101895008.41543        19.000
R11  22844631.703 7 122074722.942 7        43.700    22844630.066 6 122074774.940 6        41.600    22844638.816 5  94947148.293 5        35.700    22844638.688 5  94947144.302 5        34.300
R19  21410091.117 8 114529518.447 8        49.500    21410090.305 8 114529610.469 8        48.100    21410095.359 7  89078614.847 7        44.600    21410095.820 7  89078612.851 7        44.300
R01  22873640.000 7 122272731.626 7        42.500    22873638.625 6 122272724.599 6        41.300    22873647.781 6  95101033.198 6        37.300    22873649.527 6  95101022.199 6        36.200
G06  22672201.516 7 119143304.897 7        44.900    22672213.125 4  92839045.54144        29.800
J01  37299957.969 6 196012736.464 6        38.800    37299957.813 6 196012475.457 6        39.900    37299970.934 6 152737265.531 6        37.400    37299978.402 6 146373249.613 6        41.900    37299963.328 5 159101189.158 5        31.500
E12  25511353.109 7 134063138.405 7        46.300    25511361.402 7 100112168.186 7        45.000    25511358.070 7 102723763.754 7        44.000    25511359.992 8 101417970.078 8        51.000
C01  36697406.273 7 191093030.910 7        44.500    36697399.480 8 147765231.499 8        48.400    36697393.930 7 155278740.069 7        47.000
C02  39033889.547 6 203259725.231 6        36.000    39033887.152 6 157173304.928 6        40.400    39033881.867 6 165165157.650 6        40.100
C03  37219297.992 7 193810630.932 7        42.700    37219295.063 7 149866643.402 7        47.400    37219289.148 7 157487002.602 7        47.800
C04  37510076.078 6 195324827.113 6        40.900    37510073.660 7 151037529.486 7        45.700    37510067.438 7 158717421.873 7        45.700
C07  36034954.859 7 187643472.459 7        47.900    36034950.164 8 145097810.878 8        49.800    36034941.391 8 152475670.845 8        50.400
C10  37309463.867 7 194280181.088 7        46.000    37309462.301 7 150229765.702 7        46.300    37309452.367 7 157868518.576 7        46.100
C06  41023497.586 5 213620105.327 5        32.900    41023504.785 5 165184630.464 5        34.000    41023495.156 5 173583801.433 5        35.500
C14  25538456.359 6 132985439.193 6        38.000    25538458.504 6 102832776.607 6        41.500    25538447.828 6 108061525.248 6        41.700
C08  37429881.438 7 194907257.521 7        45.800    37429878.996 7 150714680.357 7        46.400    37429870.316 7 158378090.491 7        47.300
C09  40497580.148 6 210881528.186 6        38.300    40497586.574 6 163067002.367 6        37.900    40497574.883 6 171358496.412 6        37.500
> 2013  6 15  4  4 30.0000000  0 32
R21  22371088.930 7 119712755.806 7        45.200    22371087.492 7 119712480.792 7        43.600    22371095.879 5  93109622.122 5        35.500    22371096.094 5  93109630.126 5        35.100
R08  21776623.352 8 116613055.518 8        49.200    21776622.238 7 116612965.537 7        47.600    21776629.629 7  90698973.863 7        43.500    21776629.512 7  90698965.870 7        43.600
G21  25028383.211 5 131525064.272 5        33.300    25028396.594 2 102487106.96242        16.900
R09  21871140.578 8 116790438.465 8        48.400    21871139.262 7 116790681.466 7        46.500    21871145.582 7  90837212.172 7        42.100    21871146.734 6  90837208.177 6        41.200
G16  21687857.484 8 113970566.851 8        49.600    21687866.387 6  88808303.15646        37.000
G31  20896636.039 8 109812820.098 8        50.700    20896644.254 7  85568345.32747        43.900    20896643.988 8  85568347.328 8        49.800
G25  25178373.00815 132313233.08615        34.300    25178388.06312 103101272.06552        17.400    25178387.67616 103101272.07616        38.800    25178389.67617  98805379.16117        43.200
G03  24650211.969 6 129537770.310 6        37.500    24650228.594 3 100938615.31543        19.300
G32  24283953.977 6 127613022.227 6        41.000    24283966.457 4  99438778.66344        25.600
G20  24939397.313 6 131057393.761 6        38.300    24939409.316 3 102122689.54443        19.000
R20  20194580.719 7 107989621.503 7        47.600    20194579.680 7 107989571.521 7        45.800    20194587.641 7  83991982.961 7        47.700    20194587.723 8  83991977.971 8        48.200
G14  22126280.781 7 116274352.955 7        44.900    22126291.324 5  90603489.13845        32.800
R07  23569802.492 6 126170978.804 6        39.800    23569802.039 6 126170938.842 6        38.800    23569816.988 6  98132957.083 6        38.600    23569816.863 6  98132951.080 6        37.400
G29  22472184.859 7 118092183.732 7        45.900    22472194.941 5  92019957.97545        33.900    22472194.484 7  92019951.967 7        43.900
R10  20584194.867 8 109725319.552 8        52.300    20584193.313 8 109725384.544 8        51.300    20584201.410 6  85342039.472 6        41.800    20584201.598 6  85342031.476 6        41.700
G23  24863877.039 6 130660567.643 6        40.500    24863884.777 3 101813465.53143        19.600
R11  22832457.539 7 122009666.201 7        43.300    22832455.902 6 122009718.224 6        41.700    22832464.430 5  94896548.688 5        34.500    22832464.441 5  94896544.693 5        34.300
R19  21420759.195 8 114586585.189 8        49.100    21420758.266 7 114586677.187 7        47.800    21420763.074 7  89123000.069 7        45.200    21420763.719 7  89122998.080 7        44.500
R01  22868185.063 7 122243572.503 7        43.000    22868183.922 6 122243565.523 6        41.500    22868192.773 6  95078353.887 6        36.700    22868194.488 5  95078342.891 5        35.300
G06  22652212.430 7 119038262.513 7        44.400    22652224.051 5  92757194.45745        30.000
J01  37299510.219 6 196010383.658 6        36.800    37299510.605 6 196010122.651 6        38.900    37299523.516 6 152735432.190 6        36.600    37299530.922 6 146371492.659 6        41.800    37299516.668 5 159099279.451 5        32.600
E12  25495281.016 7 133978678.960 7        45.100    25495289.449 7 100049097.907 7        45.400    25495286.168 7 102659048.145 7        44.500    25495287.859 8 101354077.136 8        51.100
C01  36697420.375 7 191093105.834 7        44.300    36697414.211 8 147765289.417 8        48.100    36697408.578 7 155278800.927 7        47.100
C02  39033979.469 6 203260195.020 6        36.100    39033977.855 6 157173668.175 6        41.400    39033972.410 6 165165539.375 6        39.200
C03  37219192.891 7 193810081.735 7        42.500    37219189.543 7 149866218.720 7        47.700    37219183.707 7 157486556.328 7        47.600
C04  37510075.031 6 195324819.537 6        40.800    37510072.398 7 151037523.624 7        45.400    37510065.945 7 158717415.720 7        45.800
C07  36032301.289 7 187629656.849 7        47.200    36032296.902 8 145087127.771 8        49.700    36032288.164 8 152464444.524 8        50.400
C10  37305738.594 7 194260785.220 7        44.700    37305737.500 7 150214767.593 7        46.000    37305727.406 7 157852757.855 7        45.400
C06  41031064.227 5 213659504.983 5        32.400    41031070.633 5 165215096.809 5        33.500    41031061.586 5 173615816.896 5        35.200
C14  25542546.656 6 133006738.755 6        38.500    25542548.313 6 102849246.707 6        41.800    25542537.664 6 108078832.846 6        41.100
C08  37423515.883 7 194874108.634 7        45.100    37423513.238 7 150689047.536 7        46.000    37423504.660 7 158351154.310 7        47.600
C09  40508123.719 6 210936431.442 6        37.600    40508130.301 6 163109456.819 6        37.600    40508118.945 6 171403109.617 6        37.500
> 2013  6 15  4  5  0.0000000  0 33
R21  22347408.883 7 119586045.676 7        44.100    22347407.918 7 119585770.691 7        43.100    22347416.250 6  93011069.952 6        36.600    22347417.133 5  93011077.955 5        35.700
R08  21789477.477 8 116681887.268 8        48.100    21789476.246 7 116681797.278 7        46.700    21789483.664 7  90752509.575 7        44.600    21789484.426 7  90752501.581 7        43.600
G21  25019079.813 5 131476178.141 5        35.200    25019094.688 2 102449013.92742        16.300
R09  21879278.383 8 116833894.211 8        48.600    21879277.066 7 116834137.224 7        46.700    21879283.539 7  90871010.990 7        42.100    21879284.484 6  90871006.990 6        40.900
G16  21679022.820 8 113924141.993 8        49.900    21679032.004 6  88772127.98046        37.300
G31  20896595.023 8 109812602.767 8        51.500    20896603.445 7  85568175.97247        43.900    20896603.273 8  85568177.972 8        49.600
G25  25195033.39815 132400785.29015        33.400    25195048.53912 103169494.50952        17.800    25195047.83216 103169494.50516        37.800    25195049.85917  98870758.96917        42.800
G03  24627904.398 6 129420549.733 6        37.100    24627921.402 3 100847275.05343        19.000
G32  24292443.250 7 127657630.684 7        42.400    24292455.242 4  99473538.40044        25.400
G20  24944080.477 6 131082004.242 6        37.900    24944092.855 3 102141866.48643        18.600
R20  20183175.461 7 107928635.429 7        47.600    20183175.008 7 107928585.426 7        45.700    20183183.078 8  83944549.393 8        48.500    20183183.098 7  83944544.396 7        47.700
G14  22144032.320 7 116367635.990 7        44.900    22144042.781 5  90676177.11845        32.500
R07  23591703.047 6 126288210.796 6        40.900    23591703.180 6 126288170.822 6        39.600    23591717.613 6  98224136.976 6        38.700    23591717.395 6  98224130.974 6        38.500
G29  22484767.484 7 118158305.120 7        46.700    22484777.453 5  92071481.11345        34.400    22484777.262 7  92071475.103 7        44.000
R10  20580501.656 8 109705635.286 8        52.300    20580499.746 8 109705700.286 8        50.800    20580508.727 6  85326729.477 6        41.400    20580508.348 6  85326721.488 6        41.400
G23  24843990.094 6 130556067.167 6        38.100    24843999.758 3 101732036.64243        19.600
R11  22820273.492 7 121944563.337 7        43.700    22820272.559 7 121944615.319 7        42.500    22820280.746 5  94845913.193 5        35.400    22820281.367 5  94845909.201 5        34.900
R19  21431560.719 8 114644365.646 8        49.500    21431559.203 7 114644457.666 7        47.800    21431564.773 7  89167940.415 7        44.900    21431565.273 7  89167938.419 7        44.700
R01  22862861.125 7 122215117.938 7        43.300    22862861.039 6 122215110.921 6        41.700    22862869.859 6  95056222.518 6        36.400    22862871.371 5  95056211.530 5        35.100
G06  22632266.242 7 118933443.511 7        44.100    22632277.574 5  92675517.42845        30.300
J01  37299051.313 6 196007973.212 6        37.800    37299051.316 6 196007712.206 6        39.600    37299064.332 6 152733553.921 6        36.200    37299071.918 7 146369692.659 7        42.100    37299058.07815 159097322.89715        31.900
E12  25479230.727 7 133894336.164 7        46.200    25479239.754 7  99986114.728 7        45.200    25479236.422 7 102594421.921 7        44.600    25479237.945 8 101290272.435 8        51.300
C01  36697435.492 7 191093183.053 7        44.500    36697428.719 8 147765349.123 8        48.400    36697423.395 7 155278863.672 7        47.300
C02  39034070.234 6 203260666.495 6        36.000    39034068.180 6 157174032.740 6        41.800    39034062.719 6 165165922.479 6        39.900
C03  37219087.820 7 193809534.147 7        42.600    37219084.707 7 149865795.281 7        47.200    37219078.727 7 157486111.359 7        47.700
C04  37510073.180 6 195324813.190 6        40.900    37510071.332 7 151037518.707 7        44.900    37510064.824 7 158717410.552 7        45.800
C07  36029649.188 7 187615846.532 7        47.200    36029644.953 8 145076448.757 8        49.700    36029636.102 8 152453222.522 8        50.700
C10  37302008.281 7 194241360.539 7        45.700    37302007.406 7 150199747.189 7        45.800    37301997.621 7 157836973.695 7        46.200
C06  41038605.977 5 213698773.446 5        31.200    41038612.313 5 165245461.723 5        34.200    41038602.410 5 173647725.760 5        35.800
C14  25546708.883 6 133028413.559 6        36.900    25546711.184 6 102866006.993 6        41.600    25546700.426 6 108096445.357 6        41.100
C08  37417173.125 7 194841081.188 7        45.000    37417170.262 7 150663508.629 7        46.000    37417161.855 7 158324316.815 7        47.300
C09  40518655.773 6 210991275.164 6        36.600    40518662.301 6 163151865.218 6        38.000    40518651.070 6 171447674.421 6        36.400
C05  40899416.67215 212973944.91715        31.000    40899420.20715 164685017.63515        34.100    40899412.77715 173058869.97815        35.700
> 2013  6 15  4  5 30.0000000  0 32
R21  22323761.820 7 119459501.155 7        44.200    22323760.383 7 119459226.156 7        42.900    22323769.492 6  92912646.599 6        36.600    22323769.520 6  92912654.602 6        36.300
R08  21802426.031 8 116751229.729 8        48.800    21802425.270 7 116751139.752 7        47.000    21802432.926 7  90806442.514 7        44.000    21802432.973 7  90806434.514 7        43.200
G21  25009783.375 6 131427322.248 6        36.800    25009796.848 2 102410944.53642        16.900
R09  21887438.883 7 116877474.234 7        47.800    21887438.859 7 116877717.235 7        46.500    21887445.031 6  90904906.472 6        41.800    21887446.391 6  90904902.478 6        40.600
G16  21670251.766 8 113878047.890 8        51.000    21670260.594 6  88736210.53746        37.600
G31  20896591.688 8 109812585.321 8        51.600    20896599.746 7  85568162.37047        43.800    20896599.508 8  85568164.371 8        49.600
G25  25211677.758 6 132488241.354 6        37.100    25211690.773 3 103237642.00143        18.600    25211690.508 6 103237642.019 6        36.600    25211691.918 6  98936066.996 6        41.500
G03  24605603.234 6 129303356.427 6        38.700    24605619.035 3 100755956.03243        18.600
G32  24300982.445 7 127702507.272 7        42.000    24300995.973 4  99508507.04144        25.000
G20  24948834.336 6 131106981.557 6        38.300    24948845.832 3 102161329.23143        19.900
R20  20171902.656 7 107868354.774 7        47.600    20171901.969 7 107868304.779 7        46.300    20171910.051 8  83897664.472 8        48.400    20171910.113 7  83897659.482 7        47.900
G14  22161843.836 7 116461238.341 7        45.100    22161855.004 5  90749113.91045        32.700
R07  23613591.156 7 126405370.911 7        42.700    23613589.531 6 126405330.941 6        41.300    23613604.230 6  98315260.976 6        38.500    23613603.410 6  98315254.981 6        37.900
G29  22497434.953 7 118224873.383 7        45.800    22497445.426 5  92123352.46145        33.900    22497444.859 7  92123346.445 7        43.200
R10  20576826.898 8 109686047.140 8        52.300    20576825.695 8 109686112.146 8        50.500    20576835.051 7  85311494.266 7        42.000    20576834.816 6  85311486.270 6        41.100
G23  24824132.352 6 130451715.186 6        38.300    24824142.289 3 101650723.51343        18.600
R11  22808081.305 7 121879414.117 7        43.800    22808080.488 7 121879466.135 7        42.200    22808089.742 6  94795241.657 6        36.200    22808089.719 5  94795237.672 5        35.300
R19  21442495.008 8 114702857.181 8        48.300    21442494.313 7 114702949.187 7        47.500    21442500.035 7  89213433.808 7        45.700    21442500.621 7  89213431.813 7        44.200
