     2              OBSERVATION DATA    G (GPS)             RINEX VERSION / TYPE
CCRINEXO V2.4.1 LH  Bernese             28-APR-08 17:51     PGM / RUN BY / DATE 
TPS2RIN 1.40        GEOMATICA/IREALP    28-APR-08 12:59     COMMENT             
BUILD FEB  4 2004 (C) TOPCON POSITIONING SYSTEMS            COMMENT             
D:\GPSCOMO\TB01H\2008\04\28\CO6C79~1.JPS                    COMMENT             
SE TPS 00000000                                             COMMENT             
COMO                                                        MARKER NAME         
12761M001                                                   MARKER NUMBER       
GEOMATICA/IREALP    MILANO POLYTECHNIC                      OBSERVER / AGENCY   
8PRM6AZ2EBK         TPS ODYSSEY_E       3.1 JAN,24,2007 P1  REC # / TYPE / VERS 
217-0400            TPSCR3_GGD      CONE                    ANT # / TYPE        
  4398306.2809   704149.8723  4550154.6777                  APPROX POSITION XYZ 
        0.2134        0.0000        0.0000                  ANTENNA: DELTA H/E/N
     1     1                                                WAVELENGTH FACT L1/2
     7    C1    P1    P2    L1    L2    D1    D2            # / TYPES OF OBSERV 
     1                                                      INTERVAL            
  2008     4    28    12     0    0.000000                  TIME OF FIRST OBS   
                                                            END OF HEADER       
 08  4 28 14  3 50.0000000  0  8 04 07 08 10 13 23 25 27
  22989016.023    22989016.0044   22989020.8164  120808096.986 6  94136180.35944
     -2616.601       -2038.911
  20371994.644    20371994.6104   20371997.0264  107055607.403 8  83419955.66947
        61.254          47.727
  21257486.569    21257485.8114   21257490.3994  111708929.282 7  87045937.50146
      2916.100        2272.279
  22065915.594    22065914.9294   22065919.2954  115957196.161 7  90356260.69445
      3281.544        2557.051
  21211586.453    21211586.5264   21211589.3164  111467667.144 8  86857939.67046
     -1579.800       -1231.015
  24032907.081    24032905.1074   24032908.2454  126293776.722 5  98410734.27142
     -2556.750       -1992.270
  21400008.527    21400008.1484   21400011.4944  112457858.363 8  87629504.90446
     -1487.720       -1159.261
  20628255.928    20628255.3044   20628259.1254  108402265.161 8  84469326.45447
       307.950         239.960
 08  4 28 14  3 51.0000000  0  8 04 07 08 10 13 23 25 27
  22989514.089    22989514.0544   22989518.7824  120810713.666 6  94138219.32644
     -2616.782       -2039.044
  20371983.122    20371983.0104   20371985.4514  107055546.445 8  83419908.17047
        60.661          47.269
  21256931.711    21256930.9704   21256935.5344  111706013.393 8  87043665.38246
      2915.670        2271.949
  22065291.120    22065290.4364   22065294.8794  115953914.731 7  90353703.73345
      3281.293        2556.854
  21211887.215    21211887.1924   21211889.8894  111469247.075 8  86859170.78446
     -1580.054       -1231.210
  24033393.121    24033391.5524   24033395.1844  126296333.544 6  98412726.60742
     -2556.862       -1992.375
  21400291.602    21400291.3264   21400294.6614  112459346.291 8  87630664.32846
     -1488.132       -1159.584
  20628197.478    20628196.7674   20628200.5304  108401957.453 8  84469086.68147
       307.464         239.583
 08  4 28 14  3 52.0000000  0  8 04 07 08 10 13 23 25 27
  22990012.430    22990012.0954   22990016.7364  120813330.583 7  94140258.48844
     -2617.035       -2039.260
  20371971.652    20371971.5154   20371973.9634  107055486.066 8  83419861.12347
        60.089          46.820
  21256376.809    21256376.2104   21256380.6784  111703097.962 8  87041393.61846
      2915.203        2271.587
  22064666.738    22064666.1074   22064670.4344  115950633.551 7  90351146.96345
      3281.055        2556.674
  21212188.084    21212187.8724   21212190.6204  111470827.218 8  86860402.06446
     -1580.250       -1231.362
  24033879.540    24033878.4014   24033881.9174  126298890.406 6  98414718.96942
     -2556.883       -1992.374
  21400574.891    21400574.5234   21400577.8144  112460834.585 8  87631824.03946
     -1488.478       -1159.854
  20628139.018    20628138.2704   20628142.0734  108401650.219 8  84468847.27947
       306.996         239.216
 08  4 28 14  3 53.0000000  0  8 04 07 08 10 13 23 25 27
  22990510.470    22990509.9764   22990514.6734  120815947.743 7  94142297.82944
     -2617.283       -2039.431
  20371960.326    20371960.1244   20371962.6064  107055426.309 8  83419814.55947
        59.445          46.323
  21255822.088    21255821.4774   21255826.0044  111700182.985 8  87039122.20846
      2914.749        2271.233
  22064042.421    22064041.7804   22064046.1464  115947352.665 7  90348590.42945
      3280.738        2556.416
  21212488.695    21212488.5864   21212491.3694  111472407.613 8  86861633.53846
     -1580.520       -1231.571
  24034365.856    24034365.3634   24034368.3644  126301447.302 6  98416711.34842
     -2556.912       -1992.389
  21400858.214    21400857.8334   21400861.1204  112462323.301 8  87632984.07646
     -1488.927       -1160.200
  20628080.576    20628079.9244   20628083.7524  108401343.496 8  84468608.27447
       306.468         238.806
 08  4 28 14  3 54.0000000  0  8 04 07 08 10 13 23 25 27
  22991008.932    22991007.9364   22991012.7384  120818565.142 6  94144337.35744
     -2617.518       -2039.622
  20371948.872    20371948.8534   20371951.3514  107055367.146 8  83419768.45747
        58.866          45.871
  21255267.534    21255266.8484   21255271.3684  111697268.455 8  87036851.14746
      2914.308        2270.887
  22063418.272    22063417.4284   22063421.9714  115944072.049 7  90346034.11045
      3280.481        2556.211
  21212789.409    21212789.3444   21212792.1164  111473988.238 7  86862865.19446
     -1580.741       -1231.747
  24034852.495    24034851.9414   24034854.9394  126304004.268 6  98418703.78042
     -2557.001       -1992.457
  21401141.566    21401141.1814   21401144.5014  112463812.409 8  87634144.41946
     -1489.303       -1160.496
  20628022.450    20628021.6444   20628025.4974  108401037.268 8  84468369.65347
       305.981         238.428
 08  4 28 14  3 55.0000000  0  8 04 07 08 10 13 23 25 27
  22991506.759    22991506.2004   22991510.8124  120821182.848 7  94146377.12544
     -2617.859       -2039.887
  20371937.794    20371937.6944   20371940.2104  107055308.646 8  83419722.87047
        58.169          45.329
  21254713.056    21254712.3734   21254716.8194  111694354.448 8  87034580.49246
      2913.744        2270.452
  22062794.091    22062793.2124   22062797.6884  115940791.779 7  90343478.05645
      3280.097        2555.921
  21213090.533    21213090.1834   21213092.9414  111475569.172 8  86864097.08746
     -1581.088       -1232.012
  24035338.971    24035338.3924   24035341.6034  126306561.367 6  98420696.31742
     -2557.166       -1992.590
  21401425.046    21401424.6084   21401427.9524  112465301.982 8  87635305.12746
     -1489.806       -1160.890
  20627964.238    20627963.4884   20627967.3004  108400731.589 8  84468131.46347
       305.403         237.975
 08  4 28 14  3 56.0000000  0  8 04 07 08 10 13 23 25 27
  22992004.856    22992004.3604   22992009.0324  120823800.815 6  94148417.10044
     -2618.098       -2040.079
  20371926.852    20371926.6784   20371929.1844  107055250.761 8  83419677.76747
        57.578          44.862
  21254158.550    21254157.9494   21254162.4464  111691440.914 8  87032310.21046
      2913.298        2270.095
  22062170.009    22062169.1284   22062173.6044  115937511.809 7  90340922.23445
      3279.820        2555.705
  21213391.379    21213391.1194   21213393.8144  111477150.341 8  86865329.17046
     -1581.287       -1232.178
  24035825.986    24035824.9094   24035827.9444  126309118.513 6  98422688.89142
     -2557.169       -1992.592
  21401708.590    21401708.1274   21401711.5074  112466791.971 8  87636466.15746
     -1490.197       -1161.192
  20627906.030    20627905.4104   20627909.2044  108400426.427 8  84467893.67747
       304.904         237.584
 08  4 28 14  3 57.0000000  0  8 04 07 08 10 13 23 25 27
  22992503.313    22992502.4894   22992507.1734  120826419.003 7  94150457.24444
     -2618.298       -2040.227
  20371915.968    20371915.7844   20371918.2524  107055193.503 8  83419633.14747
        56.944          44.377
  21253604.219    21253603.6324   21253608.0954  111688527.839 8  87030040.28046
      2912.846        2269.753
  22061545.959    22061544.9724   22061549.5084  115934232.133 7  90338366.64345
      3279.529        2555.476
  21213692.283    21213692.0884   21213694.8594  111478731.785 8  86866561.46246
     -1581.582       -1232.397
  24036312.715    24036311.2474   24036314.8504  126311675.731 6  98424681.53242
     -2557.253       -1992.674
  21401992.202    21401991.7794   21401995.0994  112468282.368 8  87637627.50646
     -1490.602       -1161.508
  20627848.063    20627847.4274   20627851.2254  108400121.774 8  84467656.28547
       304.398         237.195
 08  4 28 14  3 58.0000000  0  8 04 07 08 10 13 23 25 27
  22993001.701    22993000.7804   22993005.5254  120829037.460 7  94152497.59444
     -2618.592       -2040.454
  20371905.228    20371905.0074   20371907.4994  107055136.831 8  83419588.98847
        56.379          43.930
  21253049.876    21253049.3794   21253053.8524  111685615.234 8  87027770.71846
      2912.369        2269.378
  22060921.863    22060920.9364   22060925.5004  115930952.722 7  90335811.26445
      3279.277        2555.273
  21213993.244    21213993.0564   21213995.7664  111480313.453 7  86867793.93146
     -1581.780       -1232.557
  24036799.591    24036798.1144   24036801.6654  126314232.988 6  98426674.20442
     -2557.277       -1992.688
  21402275.941    21402275.5184   21402278.8084  112469773.162 8  87638789.16546
     -1490.991       -1161.814
  20627790.255    20627789.5554   20627793.3394  108399817.625 8  84467419.28447
       303.898         236.805
 08  4 28 14  3 59.0000000  0  8 04 07 08 10 13 23 25 27
  22993500.056    22993499.2744   22993503.8754  120831656.203 6  94154538.16844
     -2618.886       -2040.686
  20371894.586    20371894.3414   20371896.8494  107055080.817 8  83419545.34047
        55.684          43.391
  21252495.733    21252495.2054   21252499.7244  111682703.130 8  87025501.54746
      2911.854        2268.976
  22060297.975    22060296.9954   22060301.6464  115927673.694 7  90333256.17145
      3278.837        2554.949
  21214294.216    21214294.0594   21214296.7844  111481895.431 8  86869026.64246
     -1582.132       -1232.831
  24037286.461    24037284.7164   24037288.1644  126316790.356 6  98428666.95542
     -2557.424       -1992.791
  21402559.732    21402559.2274   21402562.6004  112471264.423 8  87639951.18446
     -1491.496       -1162.199
  20627732.364    20627731.7794   20627735.5584  108399514.021 8  84467182.71147
       303.330         236.359
 08  4 28 14  4  0.0000000  0  8 04 07 08 10 13 23 25 27
  22993998.281    22993997.6204   22994002.3684  120834275.228 6  94156578.96644
     -2619.167       -2040.910
  20371884.117    20371883.7944   20371886.3014  107055025.462 8  83419502.20547
        55.026          42.879
  21251941.852    21251941.1214   21251945.6154  111679791.524 8  87023232.76046
      2911.358        2268.596
  22059673.844    22059673.1164   22059677.6774  115924394.982 7  90330701.33045
      3278.554        2554.715
  21214595.308    21214595.1844   21214597.9354  111483477.695 8  86870259.57446
     -1582.408       -1233.043
  24037773.256    24037771.4534   24037774.6134  126319347.844 6  98430659.79642
     -2557.547       -1992.885
  21402843.537    21402843.1394   21402846.4214  112472756.136 8  87641113.55846
     -1491.938       -1162.552
  20627674.604    20627674.1094   20627677.9004  108399210.966 8  84466946.56447
       302.781         235.933
 08  4 28 14  4  1.0000000  0  8 04 07 08 10 13 23 25 27
  22994496.754    22994496.2974   22994500.8634  120836894.518 6  94158619.97444
     -2619.422       -2041.112
  20371873.701    20371873.3694   20371875.8594  107054970.709 8  83419459.54247
        54.451          42.428
  21251387.896    21251387.1394   21251391.6494  111676880.393 8  87020964.34846
      2910.893        2268.224
  22059050.185    22059049.2504   22059053.6774  115921116.543 7  90328146.70645
      3278.302        2554.515
  21214896.527    21214896.2914   21214899.0464  111485060.222 8  86871492.70746
     -1582.658       -1233.234
  24038260.007    24038258.1574   24038260.9484  126321905.423 6  98432652.71242
     -2557.625       -1992.954
  21403127.334    21403127.1094   21403130.3474  112474248.256 8  87642276.24646
     -1492.325       -1162.845
  20627617.076    20627616.5454   20627620.3334  108398908.405 8  84466710.80347
       302.314         235.569
 08  4 28 14  4  2.0000000  0  8 04 07 08 10 13 23 25 27
  22994994.895    22994994.5614   22994999.3544  120839514.039 6  94160661.15744
     -2619.636       -2041.271
  20371863.297    20371863.0574   20371865.5494  107054916.539 8  83419417.33447
        53.879          41.980
  21250833.991    21250833.2634   21250837.7464  111673969.695 8  87018696.27246
      2910.481        2267.907
  22058426.385    22058425.4414   22058429.8934  115917838.367 7  90325592.28545
      3278.045        2554.321
  21215197.600    21215197.4914   21215200.2604  111486642.949 8  86872726.00346
     -1582.826       -1233.377
  24038746.175    24038745.0654   24038747.6854  126324463.010 5  98434645.63942
     -2557.590       -1992.933
  21403411.238    21403411.1254   21403414.3734  112475740.751 8  87643439.22846
     -1492.682       -1163.128
  20627559.695    20627559.0524   20627562.8614  108398606.331 8  84466475.41947
       301.830         235.195
 08  4 28 14  4  3.0000000  0  8 04 07 08 10 13 23 25 27
  22995493.646    22995493.1594   22995497.9414  120842133.794 7  94162702.52344
     -2619.872       -2041.458
  20371853.070    20371852.8684   20371855.3724  107054862.999 8  83419375.61447
        53.225          41.475
  21250280.252    21250279.5234   21250283.9384  111671059.473 7  87016428.56946
      2909.984        2267.518
  22057802.437    22057801.6854   22057806.0544  115914560.506 7  90323038.10445
      3277.704        2554.059
  21215498.792    21215498.7344   21215501.4914  111488225.931 7  86873959.49746
     -1583.111       -1233.592
  24039232.277    24039231.7434   24039234.1384  126327020.658 6  98436638.60842
     -2557.679       -1992.989
  21403695.367    21403695.2084   21403698.5044  112477233.659 8  87644602.53446
     -1493.114       -1163.470
  20627502.377    20627501.6454   20627505.5034  108398304.771 8  84466240.43847
       301.303         234.781
 08  4 28 14  4  4.0000000  0  8 04 07 08 10 13 23 25 27
  22995992.215    22995991.8004   22995996.5444  120844753.784 7  94164744.07544
     -2620.107       -2041.644
  20371842.935    20371842.8234   20371845.3054  107054810.074 8  83419334.37347
        52.618          41.002
  21249726.502    21249725.7864   21249730.2624  111668149.718 8  87014161.22746
      2909.522        2267.160
  22057178.579    22057178.0364   22057182.3384  115911282.931 7  90320484.15545
      3277.432        2553.833
  21215800.216    21215800.0074   21215802.7004  111489809.169 7  86875193.18746
     -1583.365       -1233.789
  24039719.046    24039718.4694   24039720.9004  126329578.347 5  98438631.61942
     -2557.709       -1993.033
  21403979.562    21403979.3774   21403982.6344  112478726.986 8  87645766.16346
     -1493.537       -1163.790
  20627445.058    20627444.3484   20627448.1954  108398003.719 8  84466005.85147
       300.798         234.389
 08  4 28 14  4  5.0000000  0  8 04 07 08 10 13 23 25 27
  22996490.572    22996490.3884   22996495.2004  120847374.070 7  94166785.85644
     -2620.434       -2041.897
  20371832.807    20371832.8704   20371835.3634  107054757.778 8  83419293.62547
        51.981          40.502
  21249172.940    21249172.1414   21249176.6354  111665240.462 7  87011894.27446
      2909.006        2266.760
  22056555.044    22056554.3574   22056558.7574  115908005.674 7  90317930.44845
      3277.098        2553.586
  21216101.602    21216101.3074   21216104.1304  111491392.683 8  86876427.09246
     -1583.651       -1234.011
  24040205.936    24040205.3294   24040207.9874  126332136.165 5  98440624.71742
     -2557.882       -1993.141
  21404263.748    21404263.6064   21404266.8784  112480220.743 8  87646930.13246
     -1493.972       -1164.139
  20627387.853    20627387.1794   20627391.0214  108397703.195 8  84465771.67647
       300.260         233.968
 08  4 28 14  4  6.0000000  0  8 04 07 08 10 13 23 25 27
  22996989.280    22996989.0994   22996993.8834  120849994.588 7  94168827.81744
     -2620.634       -2042.049
  20371822.987    20371823.0174   20371825.5094  107054706.093 8  83419253.35147
        51.379          40.037
  21248619.362    21248618.6084   21248623.1224  111662331.655 8  87009627.67146
      2908.582        2266.427
  22055931.618    22055930.7034   22055935.2094  115904728.705 7  90315376.96345
      3276.823        2553.374
  21216403.006    21216402.6654   21216405.5664  111492976.434 8  86877661.18446
     -1583.869       -1234.186
  24040692.829    24040692.2004   24040694.3884  126334694.014 6  98442617.83842
     -2557.865       -1993.132
  21404548.324    21404547.8924   21404551.2254  112481714.910 8  87648094.41746
     -1494.371       -1164.443
  20627330.689    20627330.0964   20627333.8834  108397403.171 8  84465537.89047
       299.775         233.591
 08  4 28 14  4  7.0000000  0  8 04 07 08 10 13 23 25 27
  22997488.225    22997487.7874   22997492.5404  120852615.365 7  94170869.97944
     -2620.908       -2042.264
  20371813.259    20371813.2964   20371815.7954  107054655.012 8  83419213.54747
        50.780          39.568
  21248065.882    21248065.1784   21248069.7184  111659423.321 8  87007361.43646
      2908.097        2266.051
  22055307.997    22055307.2394   22055311.6304  115901452.003 7  90312823.68745
      3276.570        2553.171
  21216704.414    21216704.1594   21216706.9894  111494560.428 7  86878895.46646
     -1584.117       -1234.377
  24041179.855    24041178.9074   24041181.3424  126337251.940 6  98444611.02342
     -2557.965       -1993.217
  21404832.592    21404832.2914   21404835.6674  112483209.472 8  87649259.01446
     -1494.759       -1164.752
  20627273.685    20627273.0684   20627276.9074  108397103.646 8  84465304.49747
       299.275         233.198
 08  4 28 14  4  8.0000000  0  8 04 07 08 10 13 23 25 27
  22997986.756    22997986.5684   22997991.3704  120855236.406 7  94172912.34244
     -2621.171       -2042.463
  20371803.670    20371803.6934   20371806.2394  107054604.558 8  83419174.23447
        50.140          39.069
  21247512.470    21247511.8254   21247516.3474  111656515.450 8  87005095.56546
      2907.640        2265.688
  22054684.634    22054683.8514   22054688.2074  115898175.610 7  90310270.65745
      3276.237        2552.907
  21217005.951    21217005.6544   21217008.4224  111496144.700 8  86880129.96146
     -1584.409       -1234.601
  24041666.365    24041665.5484   24041668.4074  126339809.953 6  98446604.26642
     -2558.056       -1993.272
  21405116.990    21405116.7774   21405120.1234  112484704.458 8  87650423.94146
     -1495.199       -1165.092
  20627216.839    20627216.1684   20627220.0194  108396804.642 8  84465071.50647
       298.743         232.789
 08  4 28 14  4  9.0000000  0  8 04 07 08 10 13 23 25 27
  22998485.324    22998485.3024   22998490.0314  120857857.669 7  94174954.88044
     -2621.374       -2042.625
  20371794.241    20371794.1954   20371796.7344  107054554.704 8  83419135.38647
        49.554          38.614
  21246959.216    21246958.6084   21246963.1214  111653608.031 8  87002830.04746
      2907.194        2265.342
  22054061.097    22054060.3644   22054064.8164  115894899.517 7  90307717.85845
      3275.945        2552.684
  21217307.398    21217307.1574   21217310.0004  111497729.198 8  86881364.63346
     -1584.612       -1234.761
  24042153.035    24042152.1974   24042154.6704  126342367.992 5  98448597.54742
     -2558.052       -1993.300
  21405401.630    21405401.3544   21405404.7204  112486199.854 8  87651589.18346
     -1495.601       -1165.400
  20627160.184    20627159.3804   20627163.2354  108396506.139 8  84464838.90547
       298.251         232.406
 08  4 28 14  4 10.0000000  0  8 04 07 08 10 13 23 25 27
  22998984.280    22998984.0574   22998988.8574  120860479.232 7  94176997.65844
     -2621.714       -2042.898
  20371784.867    20371784.8254   20371787.3994  107054505.524 8  83419097.06347
        48.844          38.062
  21246406.036    21246405.4364   21246409.9194  111650701.149 8  87000564.94346
      2906.613        2264.896
  22053437.815    22053436.9934   22053441.2404  115891623.760 7  90305165.32145
      3275.588        2552.406
  21217608.973    21217608.7644   21217611.5604  111499314.000 7  86882599.54246
     -1584.954       -1235.027
  24042639.629    24042639.2714   24042641.5534  126344926.165 5  98450590.93642
     -2558.241       -1993.443
  21405686.367    21405685.9864   21405689.3814  112487695.719 8  87652754.78946
     -1496.099       -1165.789
  20627103.432    20627102.6944   20627106.4884  108396208.190 8  84464606.73747
       297.673         231.952
 08  4 28 14  4 11.0000000  0  8 04 07 08 10 13 23 25 27
  22999483.592    22999483.0594   22999487.7504  120863101.115 7  94179040.68144
     -2622.042       -2043.146
  20371775.669    20371775.5804   20371778.1704  107054457.031 8  83419059.27347
        48.149          37.522
  21245852.992    21245852.3794   21245856.9134  111647794.797 8  86998300.25446
      2906.087        2264.481
  22052814.678    22052813.6714   22052818.0424  115888348.369 7  90302613.06845
      3275.207        2552.110
  21217910.490    21217910.3674   21217913.1714  111500899.124 8  86883834.70546
     -1585.284       -1235.289
  24043125.927    24043125.9114   24043128.6654  126347484.496 6  98452584.42342
     -2558.409       -1993.536
  21405971.266    21405970.7484   21405974.1274  112489192.061 8  87653920.76846
     -1496.581       -1166.165
  20627046.660    20627046.1224   20627049.9024  108395910.826 8  84464375.02547
       297.071         231.484
 08  4 28 14  4 12.0000000  0  8 04 07 08 10 13 23 25 27
  22999982.709    22999982.0184   22999986.5474  120865723.198 6  94181083.86144
     -2622.183       -2043.258
  20371766.483    20371766.4744   20371769.0534  107054409.111 8  83419021.93547
        47.633          37.114
  21245300.029    21245299.3944   21245303.9094  111644888.884 8  86996035.90746
      2905.693        2264.177
  22052191.299    22052190.3674   22052194.8364  115885073.271 7  90300061.03545
      3274.952        2551.923
  21218212.272    21218212.0854   21218214.8944  111502484.452 8  86885070.02846
     -1585.431       -1235.403
  24043613.170    24043612.7944   24043615.9504  126350042.816 6  98454577.92442
     -2558.316       -1993.508
  21406256.154    21406255.6174   21406258.8834  112490688.770 8  87655087.03146
     -1496.892       -1166.405
  20626990.261    20626989.6044   20626993.3784  108395613.933 8  84464143.67847
       296.658         231.164
 08  4 28 14  4 13.0000000  0  8 04 07 08 10 13 23 25 27
  23000481.615    23000481.0284   23000485.5764  120868345.570 6  94183127.26244
     -2622.517       -2043.510
  20371757.511    20371757.4834   20371760.0364  107054361.808 8  83418985.07747
        46.994          36.617
  21244747.152    21244746.5414   21244751.0264  111641983.461 8  86993771.93546
      2905.178        2263.785
  22051568.173    22051567.0434   22051571.6294  115881798.457 7  90297509.23745
      3274.672        2551.681
  21218514.103    21218513.7654   21218516.5904  111504070.053 8  86886305.56046
     -1585.738       -1235.637
  24044100.387    24044099.6384   24044102.5894  126352601.249 5  98456571.50742
     -2558.488       -1993.623
  21406541.063    21406540.4864   21406543.8484  112492185.905 8  87656253.63246
     -1497.349       -1166.770
  20626933.830    20626933.1984   20626936.9824  108395317.559 8  84463912.73747
       296.114         230.738
 08  4 28 14  4 14.0000000  0  8 04 07 08 10 13 23 25 27
  23000980.454    23000980.0414   23000984.6184  120870968.163 6  94185170.84844
     -2622.704       -2043.679
  20371748.828    20371748.6264   20371751.2214  107054315.120 8  83418948.70047
        46.381          36.136
  21244194.554    21244193.7344   21244198.2174  111639078.487 8  86991508.32346
      2904.750        2263.431
  22050944.947    22050943.9604   22050948.5794  115878523.951 7  90294957.67545
      3274.352        2551.444
  21218815.918    21218815.6164   21218818.3714  111505655.907 8  86887541.29046
     -1585.980       -1235.829
  24044587.325    24044586.1414   24044589.2374  126355159.716 5  98458565.12742
     -2558.485       -1993.639
  21406825.968    21406825.4034   21406828.8054  112493683.451 8  87657420.55146
     -1497.750       -1167.078
  20626877.674    20626876.8984   20626880.7004  108395021.686 8  84463682.18847
       295.623         230.353
 08  4 28 14  4 15.0000000  0  8 04 07 08 10 13 23 25 27
  23001479.595    23001479.2094   23001483.8104  120873591.014 7  94187214.63044
     -2622.980       -2043.881
  20371739.954    20371739.8184   20371742.3864  107054269.059 8  83418912.80347
        45.748          35.657
  21243641.716    21243641.0474   21243645.4774  111636173.995 8  86989245.08246
      2904.251        2263.056
  22050321.986    22050320.9454   22050325.5804  115875249.731 7  90292406.33745
      3274.077        2551.225
  21219117.667    21219117.4074   21219120.1674  111507242.015 8  86888777.21446
     -1586.235       -1236.021
  24045073.948    24045073.3404   24045075.8954  126357718.301 5  98460558.80742
     -2558.643       -1993.710
  21407110.938    21407110.4794   21407113.7864  112495181.417 8  87658587.79746
     -1498.177       -1167.410
  20626821.477    20626820.6954   20626824.5014  108394726.326 8  84463452.04047
       295.105         229.948
 08  4 28 14  4 16.0000000  0  8 04 07 08 10 13 23 25 27
  23001978.891    23001978.3074   23001982.9094  120876214.099 6  94189258.59244
     -2623.202       -2044.051
  20371731.265    20371731.1554   20371733.7324  107054223.591 8  83418877.37247
        45.171          35.197
  21243089.006    21243088.4874   21243092.8714  111633269.956 8  86986982.19646
      2903.812        2262.708
  22049698.798    22049697.9344   22049702.5084  115871975.800 7  90289855.22445
      3273.786        2551.002
  21219419.522    21219419.2954   21219421.9814  111508828.365 8  86890013.33046
     -1586.470       -1236.212
  24045560.809    24045560.3854   24045563.1374  126360276.872 6  98462552.50642
     -2558.564       -1993.708
  21407395.993    21407395.5634   21407398.9404  112496679.775 8  87659755.34646
     -1498.553       -1167.702
  20626765.315    20626764.6044   20626768.4064  108394431.466 8  84463222.27847
       294.610         229.569
 08  4 28 14  4 17.0000000  0  8 04 07 08 10 13 23 25 27
  23002478.104    23002477.5234   23002482.0624  120878837.403 7  94191302.72444
     -2623.413       -2044.218
  20371722.710    20371722.5954   20371725.1724  107054178.696 8  83418842.38847
        44.609          34.762
  21242536.485    21242535.9384   21242540.3294  111630366.349 8  86984719.64646
      2903.391        2262.382
  22049075.875    22049074.9464   22049079.4364  115868702.127 7  90287304.31245
      3273.544        2550.810
  21219721.399    21219721.2594   21219723.8454  111510414.933 8  86891249.61846
     -1586.677       -1236.373
  24046047.610    24046047.3464   24046049.6304  126362835.506 6  98464546.25142
     -2558.666       -1993.769
  21407681.118    21407680.7394   21407684.1304  112498178.512 8  87660923.19346
     -1498.927       -1167.996
  20626709.277    20626708.5834   20626712.3854  108394137.073 8  84462992.87947
       294.159         229.217
 08  4 28 14  4 18.0000000  0  8 04 07 08 10 13 23 25 27
  23002977.093    23002976.6614   23002981.3044  120881460.973 7  94193347.05744
     -2623.704       -2044.432
  20371714.193    20371714.1754   20371716.7494  107054134.432 8  83418807.89847
        43.948          34.243
  21241983.858    21241983.5104   21241987.8684  111627463.229 8  86982457.47746
      2902.877        2261.979
  22048453.077    22048452.0274   22048456.6664  115865428.779 7  90284753.65245
      3273.185        2550.536
  21220023.494    21220023.2644   21220025.8524  111512001.765 8  86892486.10846
     -1586.964       -1236.592
  24046534.578    24046534.4414   24046536.5854  126365394.203 5  98466540.04942
     -2558.728       -1993.825
  21407966.441    21407966.0234   21407969.4184  112499677.682 8  87662091.37746
     -1499.387       -1168.351
  20626653.416    20626652.6574   20626656.4674  108393843.203 8  84462763.89147
       293.608         228.783
 08  4 28 14  4 19.0000000  0  8 04 07 08 10 13 23 25 27
  23003476.699    23003476.1454   23003480.5934  120884084.853 7  94195391.64044
     -2624.033       -2044.709
  20371705.893    20371705.8604   20371708.4244  107054090.820 8  83418773.91647
        43.286          33.728
  21241431.566    21241431.1534   21241435.5184  111624560.615 8  86980195.70146
      2902.361        2261.579
  22047830.312    22047829.2764   22047833.9104  115862155.768 7  90282203.24845
      3272.844        2550.274
  21220325.324    21220325.2604   21220327.8764  111513588.885 8  86893722.82446
     -1587.263       -1236.828
  24047021.459    24047021.4744   24047023.8134  126367953.034 6  98468533.92942
     -2558.898       -1993.920
  21408251.933    21408251.3964   21408254.8274  112501177.291 8  87663259.90146
     -1499.827       -1168.695
  20626597.627    20626596.8234   20626600.6244  108393549.886 8  84462535.33147
       293.039         228.346
 08  4 28 14  4 20.0000000  0  8 04 07 08 10 13 23 25 27
  23003975.849    23003975.4754   23003980.1034  120886708.959 7  94197436.39544
     -2624.221       -2044.840
  20371697.777    20371697.6644   20371700.2224  107054047.814 8  83418740.40447
        42.703          33.277
  21240879.194    21240878.8444   21240883.1954  111621658.477 8  86977934.29346
      2901.899        2261.223
  22047207.564    22047206.5014   22047211.0734  115858883.029 7  90279653.05945
      3272.602        2550.083
  21220627.236    21220627.2994   21220629.9084  111515176.238 8  86894959.72046
     -1587.470       -1236.986
  24047508.475    24047508.3124   24047510.7794  126370511.872 5  98470527.82642
     -2558.843       -1993.907
  21408537.459    21408536.8384   21408540.3034  112502677.294 8  87664428.73546
     -1500.200       -1168.988
  20626541.877    20626541.1134   20626544.9024  108393257.064 8  84462307.15847
       292.575         227.980
 08  4 28 14  4 21.0000000  0  8 04 07 08 10 13 23 25 27
  23004475.132    23004474.8374   23004479.6444  120889333.279 7  94199481.32444
     -2624.426       -2045.016
  20371689.670    20371689.6224   20371692.1824  107054005.414 8  83418707.36647
        42.096          32.800
  21240327.025    21240326.6954   21240331.0084  111618756.788 8  86975673.23846
      2901.465        2260.879
  22046584.864    22046583.7774   22046588.4044  115855610.582 7  90277103.10545
      3272.302        2549.835
  21220929.387    21220929.4414   21220932.0734  111516763.852 7  86896196.82346
     -1587.745       -1237.207
  24047994.840    24047995.1344   24047997.9064  126373070.828 5  98472521.81442
     -2559.015       -1994.033
  21408823.120    21408822.3964   21408825.8114  112504177.714 8  87665597.89546
     -1500.630       -1169.323
  20626486.255    20626485.4964   20626489.3014  108392964.735 8  84462079.36947
       292.082         227.598
 08  4 28 14  4 22.0000000  0  8 04 07 08 10 13 23 25 27
  23004974.616    23004974.1804   23004979.1644  120891957.909 7  94201526.47844
     -2624.786       -2045.267
  20371681.698    20371681.6664   20371684.2244  107053963.641 8  83418674.81447
        41.460          32.310
  21239775.042    21239774.5954   21239778.9454  111615855.583 7  86973412.55846
      2900.964        2260.492
  22045962.307    22045961.1274   22045965.7354  115852338.456 7  90274553.39645
      3271.965        2549.587
  21221231.738    21221231.6314   21221234.2634  111518351.714 8  86897434.12046
     -1587.985       -1237.394
  24048482.180    24048482.1094   24048484.5334  126375629.852 5  98474515.86242
     -2559.057       -1994.077
  21409108.682    21409108.0144   21409111.4094  112505678.550 8  87666767.37846
     -1501.043       -1169.644
  20626430.697    20626429.9794   20626433.7944  108392672.933 8  84461851.99447
       291.539         227.167
 08  4 28 14  4 23.0000000  0  8 04 07 08 10 13 23 25 27
  23005474.209    23005473.8154   23005478.6254  120894582.771 6  94203571.82544
     -2624.978       -2045.443
  20371673.906    20371673.8244   20371676.3874  107053922.494 8  83418642.75347
        40.833          31.815
  21239223.176    21239222.6434   21239226.9374  111612954.865 8  86971152.25746
      2900.475        2260.112
  22045339.693    22045338.4504   22045343.0824  115849066.641 7  90272003.93545
      3271.659        2549.337
  21221533.944    21221533.8744   21221536.4614  111519939.848 8  86898671.63046
     -1588.270       -1237.616
  24048968.911    24048969.1884   24048971.7024  126378188.945 5  98476509.94642
     -2559.128       -1994.103
  21409394.258    21409393.7024   21409397.0684  112507179.820 8  87667937.19946
     -1501.486       -1169.991
  20626375.225    20626374.5434   20626378.3484  108392381.646 8  84461625.01847
       291.029         226.777
 08  4 28 14  4 24.0000000  0  8 04 07 08 10 13 23 25 27
  23005973.710    23005973.3764   23005978.1754  120897207.890 7  94205617.37244
     -2625.248       -2045.648
  20371666.244    20371666.1194   20371668.7024  107053881.985 8  83418611.18647
        40.192          31.319
  21238671.219    21238670.7394   21238675.0274  111610054.628 8  86968892.33146
      2899.995        2259.739
  22044717.132    22044715.9004   22044720.5634  115845795.116 7  90269454.69145
      3271.380        2549.135
  21221836.300    21221836.0834   21221838.7154  111521528.254 8  86899909.34546
     -1588.542       -1237.817
  24049455.622    24049455.9074   24049459.0574  126380748.120 5  98478504.09942
     -2559.216       -1994.187
  21409680.008    21409679.4514   21409682.8394  112508681.516 8  87669107.35146
     -1501.911       -1170.316
  20626319.914    20626319.2344   20626323.0214  108392090.885 8  84461398.44947
       290.498         226.365
 08  4 28 14  4 25.0000000  0  8 04 07 08 10 13 23 25 27
  23006473.207    23006472.9864   23006477.7554  120899833.218 7  94207663.08144
     -2625.432       -2045.789
  20371658.687    20371658.5154   20371661.0994  107053842.038 8  83418580.05947
        39.665          30.908
  21238119.396    21238118.9384   21238123.3064  111607154.813 8  86966632.73846
      2899.604        2259.426
  22044094.466    22044093.3964   22044098.0324  115842523.862 7  90266905.66145
      3271.120        2548.923
  21222138.708    21222138.3344   21222140.9744  111523116.854 8  86901147.21646
     -1588.697       -1237.949
  24049943.441    24049943.0174   24049946.5514  126383307.263 5  98480498.22942
     -2559.128       -1994.119
  21409965.843    21409965.2394   21409968.6914  112510183.579 8  87670277.78846
     -1502.245       -1170.581
  20626264.697    20626263.9884   20626267.7924  108391800.589 8  84461172.24847
       290.064         226.017
 08  4 28 14  4 26.0000000  0  8 04 07 08 10 13 23 25 27
  23006972.619    23006972.4594   23006977.3684  120902458.819 7  94209708.99844
     -2625.737       -2046.022
  20371651.102    20371651.0084   20371653.6234  107053802.709 8  83418549.41347
        39.021          30.405
  21237567.719    21237567.2044   21237571.6144  111604255.480 8  86964373.51946
      2899.092        2259.032
  22043471.931    22043471.0304   22043475.5534  115839252.907 7  90264356.86645
      3270.804        2548.676
  21222441.097    21222440.6314   21222443.3324  111524705.715 8  86902385.28846
     -1588.990       -1238.171
  24050430.595    24050429.6874   24050433.5754  126385866.521 5  98482492.47242
     -2559.314       -1994.299
  21410251.649    21410251.1484   21410254.5884  112511686.050 8  87671448.54646
     -1502.676       -1170.917
  20626209.563    20626208.8134   20626212.6234  108391510.797 8  84460946.43547
       289.540         225.619
 08  4 28 14  4 27.0000000  0  8 04 07 08 10 13 23 25 27
  23007472.586    23007472.0234   23007476.9254  120905084.598 6  94211755.05844
     -2625.868       -2046.131
  20371643.835    20371643.6394   20371646.2264  107053763.933 8  83418519.19847
        38.499          29.999
  21237015.883    21237015.5614   21237019.9634  111601356.550 7  86962114.61346
      2898.729        2258.749
  22042849.541    22042848.7314   22042853.1134  115835982.220 7  90261808.27745
      3270.553        2548.486
  21222743.368    21222743.1034   21222745.6884  111526294.759 8  86903623.50546
     -1589.137       -1238.291
  24050918.078    24050916.5904   24050920.2584  126388425.782 5  98484486.68342
     -2559.263       -1994.195
  21410537.599    21410537.1384   21410540.5164  112513188.878 8  87672619.57646
     -1503.005       -1171.167
  20626154.456    20626153.7264   20626157.5474  108391221.454 8  84460720.97347
       289.118         225.286
 08  4 28 14  4 28.0000000  0  8 04 07 08 10 13 23 25 27
  23007972.169    23007971.7464   23007976.6054  120907710.641 6  94213801.32944
     -2626.176       -2046.377
  20371636.440    20371636.3684   20371638.9804  107053725.781 8  83418489.47147
        37.840          29.483
  21236464.273    21236463.9814   21236468.3604  111598458.108 7  86959856.08846
      2898.198        2258.335
  22042227.452    22042226.3924   22042230.8024  115832711.802 7  90259259.90345
      3270.283        2548.267
  21223045.816    21223045.5544   21223048.1464  111527884.084 7  86904861.93646
     -1589.465       -1238.538
  24051405.065    24051403.6514   24051407.1424  126390985.125 5  98486480.97742
     -2559.384       -1994.336
  21410823.669    21410823.2064   21410826.6164  112514692.119 8  87673790.93446
     -1503.448       -1171.521
  20626099.429    20626098.7614   20626102.5694  108390932.629 8  84460495.91647
       288.566         224.854
 08  4 28 14  4 29.0000000  0  8 04 07 08 10 13 23 25 27
  23008472.203    23008471.6264   23008476.4454  120910336.923 6  94215847.77844
     -2626.400       -2046.537
  20371629.189    20371629.2204   20371631.8564  107053688.259 8  83418460.23347
        37.207          28.993
  21235912.871    21235912.5174   21235916.9024  111595560.142 8  86957597.93446
      2897.728        2257.968
  22041605.165    22041604.1224   22041608.5184  115829441.702 7  90256711.77245
      3269.942        2548.008
  21223348.307    21223347.9874   21223350.6524  111529473.661 8  86906100.56646
     -1589.703       -1238.728
  24051892.243    24051890.4214   24051894.2484  126393544.551 5  98488475.32842
     -2559.468       -1994.379
  21411109.726    21411109.3444   21411112.7524  112516195.792 8  87674962.62746
     -1503.889       -1171.861
  20626044.596    20626043.9234   20626047.7134  108390644.326 8  84460271.26547
       288.042         224.449
 08  4 28 14  4 30.0000000  0  8 04 07 08 10 13 23 25 27
  23008971.993    23008971.3414   23008976.2294  120912963.497 6  94217894.45544
     -2626.721       -2046.791
  20371622.361    20371622.1804   20371624.8464  107053651.359 8  83418431.47747
        36.589          28.515
  21235361.432    21235361.1654   21235365.4894  111592662.664 8  86955340.16146
      2897.233        2257.583
  22040983.015    22040981.9224   22040986.3914  115826171.920 7  90254163.88645
      3269.622        2547.764
  21223650.942    21223650.5494   21223653.1934  111531063.499 8  86907339.39846
     -1589.968       -1238.934
  24052378.903    24052377.7114   24052381.5254  126396104.036 6  98490469.73442
     -2559.514       -1994.433
  21411395.969    21411395.5984   21411398.9754  112517699.882 8  87676134.64446
     -1504.299       -1172.178
  20625989.826    20625989.1824   20625992.9604  108390356.541 8  84460047.01847
       287.525         224.044
 08  4 28 14  4 31.0000000  0  8 04 07 08 10 13 23 25 27
  23009471.536    23009471.2104   23009476.1854  120915590.305 7  94219941.32044
     -2626.924       -2046.959
  20371615.328    20371615.2794   20371617.9564  107053615.066 8  83418403.19947
        35.990          28.040
  21234810.227    21234809.8344   21234814.2024  111589765.644 8  86953082.73946
      2896.792        2257.245
  22040360.840    22040359.7944   22040364.1994  115822902.443 7  90251616.24245
      3269.325        2547.523
  21223953.468    21223953.0964   21223955.8324  111532653.591 7  86908578.42846
     -1590.219       -1239.129
  24052865.804    24052864.7834   24052868.5334  126398663.577 6  98492464.18542
     -2559.569       -1994.474
  21411682.284    21411681.8694   21411685.2214  112519204.392 8  87677306.99046
     -1504.719       -1172.511
  20625935.139    20625934.4984   20625938.2964  108390069.261 8  84459823.16347
       287.028         223.659
 08  4 28 14  4 32.0000000  0  8 04 07 08 10 13 23 25 27
  23009971.597    23009971.3104   23009975.9744  120918217.404 7  94221988.40644
     -2627.245       -2047.197
  20371608.570    20371608.5024   20371611.1624  107053579.429 8  83418375.42747
        35.309          27.518
  21234259.095    21234258.6324   21234263.0044  111586869.148 8  86950825.72946
      2896.233        2256.804
  22039738.822    22039737.6614   22039742.1454  115819633.281 7  90249068.84745
      3269.004        2547.271
  21224255.882    21224255.7414   21224258.4804  111534243.953 8  86909817.67246
     -1590.497       -1239.351
  24053352.700    24053352.1274   24053355.7224  126401223.226 5  98494458.71042
     -2559.703       -1994.562
  21411968.658    21411968.2484   21411971.6264  112520709.333 8  87678479.67046
     -1505.156       -1172.847
  20625880.777    20625879.9314   20625883.7274  108389782.534 8  84459599.73747
       286.450         223.212
 08  4 28 14  4 33.0000000  0  8 04 07 08 10 13 23 25 27
  23010471.809    23010471.3294   23010476.0234  120920844.731 6  94224035.67444
     -2627.441       -2047.358
  20371601.962    20371601.8434   20371604.4714  107053544.406 8  83418348.13847
        34.716          27.047
  21233708.031    21233707.5604   21233711.9574  111583973.113 8  86948569.07846
      2895.806        2256.473
  22039116.716    22039115.6334   22039120.2024  115816364.426 7  90246521.69245
      3268.702        2547.034
  21224558.500    21224558.3954   21224561.1634  111535834.594 8  86911057.13646
     -1590.780       -1239.574
  24053840.217    24053839.2774   24053842.6484  126403783.004 5  98496453.33442
     -2559.843       -1994.673
  21412255.066    21412254.7774   21412258.0994  112522214.709 8  87679652.69046
     -1505.593       -1173.191
  20625826.249    20625825.4494   20625829.2674  108389496.313 8  84459376.70847
       285.968         222.830
 08  4 28 14  4 34.0000000  0  8 04 07 08 10 13 23 25 27
  23010971.931    23010971.3524   23010976.0874  120923472.345 6  94226083.16544
     -2627.757       -2047.604
  20371595.433    20371595.2934   20371597.9174  107053510.013 8  83418321.33847
        34.078          26.557
  21233157.027    21233156.5814   21233160.9854  111581077.571 7  86946312.81346
      2895.295        2256.071
  22038494.726    22038493.5604   22038498.2124  115813095.885 7  90243974.77545
      3268.385        2546.799
  21224861.327    21224861.0934   21224863.8914  111537425.483 8  86912296.79146
     -1591.013       -1239.751
  24054327.984    24054326.4524   24054329.3554  126406342.800 5  98498447.97342
     -2559.804       -1994.647
  21412541.708    21412541.3094   21412544.6404  112523720.492 8  87680826.02746
     -1505.986       -1173.496
  20625771.839    20625771.0854   20625774.8614  108389210.615 8  84459154.08847
       285.436         222.415
 08  4 28 14  4 35.0000000  0  8 04 07 08 10 13 23 25 27
  23011471.995    23011471.5974   23011476.1314  120926100.279 6  94228130.90344
     -2628.094       -2047.862
  20371589.075    20371588.8924   20371591.5084  107053476.301 8  83418295.06847
        33.371          26.004
  21232606.004    21232605.6424   21232610.0414  111578182.557 8  86944056.95846
      2894.750        2255.650
  22037872.774    22037871.6484   22037876.2374  115809827.709 7  90241428.14045
      3267.993        2546.493
  21225164.181    21225163.9004   21225166.6624  111539016.695 8  86913536.69346
     -1591.374       -1240.026
  24054814.742    24054813.1684   24054816.3564  126408902.706 5  98500442.71142
     -2559.961       -1994.788
  21412828.456    21412827.9224   21412831.3004  112525226.763 8  87681999.74446
     -1506.515       -1173.906
  20625717.583    20625716.8544   20625720.5874  108388925.496 8  84458931.91747
       284.830         221.947
 08  4 28 14  4 36.0000000  0  8 04 07 08 10 13 23 25 27
  23011972.181    23011971.5914   23011976.2584  120928728.307 6  94230178.71244
     -2628.074       -2047.844
  20371582.736    20371582.5664   20371585.2084  107053443.081 8  83418269.18247
        32.974          25.695
  21232055.332    21232054.8594   21232059.2294  111575287.890 8  86941801.37546
      2894.494        2255.448
  22037250.994    22037249.7604   22037254.3434  115806559.681 7  90238881.62645
      3267.955        2546.453
  21225467.070    21225466.7744   21225469.4854  111540608.037 8  86914776.69846
     -1591.407       -1240.056
  24055301.555    24055300.2084   24055303.1704  126411462.593 5  98502437.42742
     -2559.877       -1994.704
  21413115.032    21413114.5874   21413117.9764  112526733.323 8  87683173.68746
     -1506.705       -1174.056
  20625663.394    20625662.6644   20625666.4594  108388640.761 8  84458710.04347
       284.542         221.725
 08  4 28 14  4 37.0000000  0  8 04 07 08 10 13 23 25 27
  23012472.271    23012471.8504   23012476.3604  120931356.596 6  94232226.72344
     -2628.420       -2048.112
  20371576.573    20371576.3834   20371578.9634  107053410.443 8  83418243.75047
        32.347          25.204
  21231504.583    21231504.0604   21231508.4784  111572393.678 8  86939546.14146
      2893.984        2255.058
  22036628.962    22036628.0764   22036632.5044  115803291.942 7  90236335.34245
      3267.593        2546.169
  21225770.014    21225769.6034   21225772.3164  111542199.598 8  86916016.87446
     -1591.670       -1240.261
  24055788.227    24055787.3834   24055790.6804  126414022.502 5  98504432.15742
     -2559.921       -1994.736
  21413401.676    21413401.3444   21413404.7364  112528240.264 8  87684347.92446
     -1507.132       -1174.385
  20625609.338    20625608.5604   20625612.3824  108388356.506 8  84458488.54447
       284.016         221.313
 08  4 28 14  4 38.0000000  0  8 04 07 08 10 13 23 25 27
  23012972.761    23012972.0244   23012976.4954  120933985.099 6  94234274.91144
     -2628.611       -2048.277
  20371570.614    20371570.2944   20371572.8484  107053378.430 8  83418218.80747
        31.701          24.699
  21230953.882    21230953.3914   21230957.8474  111569499.931 8  86937291.27746
      2893.514        2254.680
  22036007.085    22036006.2104   22036010.7504  115800024.518 7  90233789.29745
      3267.268        2545.926
  21226072.797    21226072.5454   21226075.2474  111543791.421 8  86917257.25846
     -1591.954       -1240.488
  24056275.680    24056274.3354   24056277.7744  126416582.482 5  98506426.95342
     -2560.014       -1994.830
  21413688.540    21413688.2014   21413691.5744  112529747.626 8  87685522.49546
     -1507.573       -1174.737
  20625555.180    20625554.6064   20625558.3634  108388072.762 8  84458267.44747
       283.487         220.895
 08  4 28 14  4 39.0000000  0  8 04 07 08 10 13 23 25 27
  23013472.595    23013472.2224   23013476.8134  120936613.902 7  94236323.33044
     -2628.952       -2048.534
  20371564.668    20371564.3124   20371566.8954  107053347.082 8  83418194.38047
        31.015          24.168
  21230403.496    21230402.8084   21230407.2364  111566606.703 8  86935036.81146
      2892.969        2254.267
  22035385.401    22035384.4624   22035388.9544  115796757.426 7  90231243.50845
      3266.926        2545.660
  21226375.792    21226375.4994   21226378.1954  111545383.548 8  86918497.87846
     -1592.278       -1240.738
  24056762.763    24056762.0754   24056765.1284  126419142.581 5  98508421.82942
     -2560.160       -1994.916
  21413975.324    21413975.1144   21413978.5214  112531255.444 8  87686697.41846
     -1508.045       -1175.099
  20625501.305    20625500.7354   20625504.4744  108387789.584 8  84458046.78647
       282.895         220.442
 08  4 28 14  4 40.0000000  0  8 04 07 08 10 13 23 25 27
  23013972.944    23013972.5314   23013977.1764  120939243.004 6  94238371.97644
     -2629.252       -2048.760
  20371558.868    20371558.4504   20371561.0364  107053316.362 8  83418170.44147
        30.406          23.696
  21229852.971    21229852.3244   21229856.7334  111563713.970 8  86932782.73546
      2892.485        2253.880
  22034763.667    22034762.7514   22034767.2924  115793490.665 7  90228697.98445
      3266.595        2545.392
  21226678.752    21226678.5554   21226681.2164  111546975.927 8  86919738.69346
     -1592.505       -1240.913
  24057249.866    24057249.5334   24057252.3574  126421702.794 5  98510416.79842
     -2560.269       -1995.016
  21414262.242    21414262.1244   21414265.5084  112532763.682 8  87687872.66946
     -1508.449       -1175.415
  20625447.526    20625446.9204   20625450.6674  108387506.923 8  84457826.53147
       282.403         220.052
 08  4 28 14  4 41.0000000  0  8 04 07 08 10 13 23 25 27
  23014473.056    23014472.9674   23014477.4574  120941872.261 7  94240420.74944
     -2629.334       -2048.835
  20371553.055    20371552.6834   20371555.2824  107053286.211 8  83418146.94547
        29.866          23.274
  21229302.539    21229301.9124   21229306.3194  111560821.649 8  86930528.98046
      2892.115        2253.595
  22034141.998    22034141.1184   22034145.7374  115790224.135 7  90226152.63545
      3266.415        2545.261
  21226981.794    21226981.6644   21226984.2724  111548568.525 8  86920979.67846
     -1592.707       -1241.070
  24057737.249    24057736.5734   24057739.8734  126424262.976 5  98512411.74242
     -2560.167       -1994.930
  21414549.405    21414549.1484   21414552.5544  112534272.286 8  87689048.20346
     -1508.786       -1175.676
  20625393.838    20625393.2344   20625396.9494  108387224.728 8  84457606.63847
       281.961         219.712
 08  4 28 14  4 42.0000000  0  8 04 07 08 10 13 23 25 27
  23014973.382    23014973.2884   23014977.8234  120944501.851 6  94242469.77144
     -2629.755       -2049.147
  20371547.479    20371547.0824   20371549.7054  107053256.719 8  83418123.96547
        29.162          22.723
  21228752.199    21228751.6354   21228756.0474  111557929.860 8  86928275.63946
      2891.524        2253.135
  22033520.379    22033519.5304   22033524.1514  115786957.964 7  90223607.56945
      3265.992        2544.926
  21227284.702    21227284.7924   21227287.3634  111550161.433 8  86922220.90346
     -1593.064       -1241.344
  24058224.861    24058224.1534   24058227.0374  126426823.302 5  98514406.77342
     -2560.397       -1995.076
  21414836.552    21414836.3234   21414839.7294  112535781.343 8  87690224.09446
     -1509.285       -1176.070
  20625340.177    20625339.6364   20625343.3804  108386943.080 8  84457387.17547
       281.375         219.249
 08  4 28 14  4 43.0000000  0  8 04 07 08 10 13 23 25 27
  23015473.475    23015473.7224   23015478.2234  120947131.644 6  94244518.96744
     -2629.896       -2049.283
  20371542.055    20371541.5784   20371544.1964  107053227.841 8  83418101.46147
        28.573          22.265
  21228202.077    21228201.4494   21228205.8484  111555038.536 8  86926022.66046
      2891.090        2252.797
  22032899.069    22032898.1224   22032902.6694  115783692.087 7  90221062.73045
      3265.730        2544.725
  21227588.060    21227587.9214   21227590.5744  111551754.569 8  86923462.30246
     -1593.249       -1241.486
  24058712.368    24058711.3154   24058714.0224  126429383.633 5  98516401.84542
     -2560.333       -1995.092
  21415123.951    21415123.6064   21415126.9514  112537290.816 8  87691400.30246
     -1509.680       -1176.366
  20625286.868    20625286.1284   20625289.9044  108386661.951 8  84457168.11247
       280.869         218.862
 08  4 28 14  4 44.0000000  0  8 04 07 08 10 13 23 25 27
  23015974.104    23015974.0904   23015978.7024  120949761.741 6  94246568.39644
     -2630.249       -2049.545
  20371536.606    20371536.2034   20371538.8154  107053199.609 8  83418079.46147
        27.907          21.749
  21227651.897    21227651.3654   21227655.7464  111552147.723 8  86923770.07646
      2890.558        2252.387
  22032277.542    22032276.6734   22032281.2804  115780426.535 7  90218518.14145
      3265.389        2544.463
  21227891.188    21227891.1524   21227893.8584  111553348.017 8  86924703.94646
     -1593.604       -1241.767
  24059199.058    24059198.7664   24059200.8134  126431944.163 5  98518397.06242
     -2560.630       -1995.290
  21415411.335    21415410.9584   21415414.3004  112538800.736 8  87692576.86346
     -1510.145       -1176.738
  20625233.408    20625232.7364   20625236.5274  108386381.348 8  84456949.46347
       280.340         218.443
 08  4 28 14  4 45.0000000  0  8 04 07 08 10 13 23 25 27
  23016474.792    23016474.5694   23016479.2694  120952392.048 7  94248617.98044
     -2630.411       -2049.661
  20371531.134    20371530.9264   20371533.5634  107053171.938 8  83418057.89847
        27.390          21.344
  21227101.790    21227101.3074   21227105.7144  111549257.330 7  86921517.82246
      2890.183        2252.089
  22031656.264    22031655.2284   22031659.8874  115777161.247 7  90215973.76945
      3265.156        2544.264
  21228194.570    21228194.4274   21228197.0844  111554941.640 8  86925945.73446
     -1593.711       -1241.860
  24059686.332    24059686.1674   24059688.1224  126434504.648 5  98520392.25442
     -2560.462       -1995.178
  21415698.745    21415698.3324   21415701.6614  112540311.006 8  87693753.69846
     -1510.444       -1176.972
  20625180.008    20625179.4514   20625183.2534  108386101.207 8  84456731.17347
       279.910         218.109
 08  4 28 14  4 46.0000000  0  8 04 07 08 10 13 23 25 27
  23016975.374    23016975.1404   23016979.8494  120955022.633 6  94250667.78544
     -2630.725       -2049.917
  20371526.297    20371525.7824   20371528.4234  107053144.895 8  83418036.82647
        26.730          20.827
  21226551.843    21226551.3804   21226555.7964  111546367.426 7  86919265.94746
      2889.660        2251.686
  22031034.992    22031033.8854   22031038.5544  115773896.275 7  90213429.63345
      3264.813        2544.017
  21228497.922    21228497.7534   21228500.3434  111556535.536 8  86927187.73146
     -1594.032       -1242.101
  24060173.906    24060173.6854   24060175.5344  126437065.221 5  98522387.51242
     -2560.617       -1995.291
  21415986.149    21415985.8384   21415989.1164  112541821.715 8  87694930.87146
     -1510.929       -1177.341
  20625126.749    20625126.2104   20625130.0454  108385821.597 8  84456513.29447
       279.345         217.674
 08  4 28 14  4 47.0000000  0  8 04 07 08 10 13 23 25 27
  23017475.857    23017475.6354   23017480.5064  120957653.414 6  94252717.74944
     -2630.879       -2050.043
  20371521.023    20371520.7564   20371523.3784  107053118.449 8  83418016.21947
        26.146          20.373
  21226001.882    21226001.5674   21226005.9394  111543477.976 7  86917014.43346
      2889.222        2251.333
  22030413.784    22030412.6694   22030417.2854  115770631.565 7  90210885.70045
      3264.580        2543.832
  21228801.200    21228801.0104   21228803.7644  111558129.671 8  86928429.91546
     -1594.254       -1242.277
  24060660.549    24060660.3904   24060662.8904  126439625.839 5  98524382.79142
     -2560.640       -1995.291
  21416273.840    21416273.3664   21416276.6694  112543332.816 8  87696108.34846
     -1511.297       -1177.630
  20625073.567    20625073.0894   20625076.9234  108385542.479 8  84456295.79947
       278.872         217.303
 08  4 28 14  4 48.0000000  0  8 04 07 08 10 13 23 25 27
  23017976.626    23017976.3234   23017981.1774  120960284.461 6  94254767.90744
     -2631.179       -2050.256
  20371516.292    20371515.8304   20371518.4884  107053092.598 8  83417996.07847
        25.553          19.909
  21225452.212    21225451.7784   21225456.1654  111540588.987 7  86914763.27246
      2888.759        2250.985
  22029792.337    22029791.5284   22029796.1454  115767367.130 7  90208341.98745
      3264.297        2543.603
  21229104.624    21229104.4244   21229107.1744  111559724.032 8  86929672.27246
     -1594.475       -1242.443
  24061147.573    24061147.7364   24061150.1164  126442186.506 5  98526378.11742
     -2560.691       -1995.349
  21416561.503    21416560.9664   21416564.3284  112544844.302 8  87697286.13046
     -1511.677       -1177.935
  20625020.606    20625020.0684   20625023.8964  108385263.847 8  84456078.68347
       278.389         216.926
 08  4 28 14  4 49.0000000  0  8 04 07 08 10 13 23 25 27
  23018477.340    23018476.9284   23018481.9874  120962915.778 6  94256818.28944
     -2631.453       -2050.492
  20371511.314    20371511.0354   20371513.6864  107053067.399 8  83417976.44247
        24.874          19.383
  21224902.695    21224902.0944   21224906.5004  111537700.503 7  86912512.50446
      2888.231        2250.570
  22029171.349    22029170.3764   22029175.0514  115764103.054 7  90205798.55045
      3263.896        2543.299
  21229408.002    21229407.8904   21229410.6474  111561318.688 8  86930914.86246
     -1594.803       -1242.707
  24061635.282    24061634.7844   24061637.5704  126444747.318 5  98528373.54642
     -2560.885       -1995.481
  21416849.034    21416848.6934   21416852.0664  112546356.240 8  87698464.26846
     -1512.164       -1178.315
  20624967.773    20624967.1554   20624970.9614  108384985.759 8  84455861.99147
       277.816         216.480
 08  4 28 14  4 50.0000000  0  8 04 07 08 10 13 23 25 27
  23018978.070    23018977.7874   23018982.7294  120965547.336 7  94258868.85344
     -2631.677       -2050.656
  20371506.732    20371506.3204   20371508.9804  107053042.813 8  83417957.28347
        24.278          18.921
