     2.11           OBSERVATION DATA    M (MIXED)           RINEX VERSION / TYPE
teqc  2013Mar15                         20130704 16:23:33UTCPGM / RUN BY / DATE
Linux2.6.32-279.el6.x86_64|x86_64|gcc|Win64-MinGW64|=       COMMENT
     2.10           OBSERVATION DATA    M (MIXED)           COMMENT
TPS2RIN 7.12                                                COMMENT
undersampled using goGPS                                    COMMENT
MILA                                                        MARKER NAME
12710M001                                                   MARKER NUMBER
GPSLOMBARDIA        IREALP                                  OBSERVER / AGENCY
8PHHHFBLAM8         TPS ODYSSEY_E       3.4 Dec,12,2009 p2  REC # / TYPE / VERS
217-0253            TPSCR3_GGD      CONE                    ANT # / TYPE
  4421849.5390   718507.7677  4525043.6216                  APPROX POSITION XYZ
        0.0540        0.0000        0.0000                  ANTENNA: DELTA H/E/N
     1     1                                                WAVELENGTH FACT L1/2
    15.0000                                                 INTERVAL
    16                                                      LEAP SECONDS
     7    C1    P1    P2    L1    L2    D1    D2            # / TYPES OF OBSERV
SE TPS 00000000                                             COMMENT
  2013     4     5    11    35    1.0000000     GPS         TIME OF FIRST OBS
                                                            END OF HEADER
 13  4  5 11 35  1.0000000  0 10G02G04G05G07G08G09G10G13G26G28
  22913087.893    22913087.4714   22913093.9764  120409080.133 7  93825247.86944
     -2379.069       -1853.817
  25014824.015    25014824.4654   25014837.3894  131453665.090 5 102431419.80041
     -3370.752       -2626.562
  21443901.826    21443901.7854   21443907.7694  112688511.065 8  87809255.55146
      1955.639        1523.870
  20818244.538    20818244.3984   20818249.8634  109400665.363 8  85247292.26747
     -1272.790        -991.782
  20635515.705    20635515.2634   20635521.7084  108440445.943 8  84499074.60347
       848.128         660.877
  23962256.902    23962255.8954   23962267.0374  125922546.414 6  98121473.65642
      3905.032        3042.863
  20852698.014    20852696.7944   20852704.3834  109581685.450 8  85388339.53547
     -1805.498       -1406.881
  23385887.364    23385887.1224   23385895.5534  122893617.848 7  95761261.58543
     -2794.256       -2177.336
  22653795.414    22653795.0314   22653802.7964  119046535.883 7  92763537.67444
      3190.741        2486.283
  23941616.454    23941615.7694   23941627.3444  125814096.011 6  98036984.70943
      3326.887        2592.369
 13  4  5 11 35 16.0000000  0 10G02G04G05G07G08G09G10G13G26G28
  22919886.582    22919885.7684   22919892.6344  120444807.485 7  93853087.30544
     -2384.588       -1858.119
  25024443.885    25024444.4254   25024458.2594  131504217.893 5 102470811.42941
     -3369.649       -2625.669
  21438329.787    21438329.7674   21438335.6264  112659230.333 8  87786439.39746
      1948.474        1518.294
  20821887.608    20821887.6384   20821893.0464  109419810.479 8  85262210.52647
     -1279.852        -997.287
  20633106.320    20633105.9364   20633112.3684  108427784.656 8  84489208.66747
       840.106         654.626
  23951113.375    23951113.0414   23951124.1964  125863988.328 6  98075844.03542
      3902.698        3041.060
  20857862.708    20857861.4744   20857868.9364  109608825.576 8  85409487.66447
     -1813.148       -1412.840
  23393865.842    23393865.7624   23393873.9404  122935545.199 6  95793932.17243
     -2795.995       -2178.702
  22644692.076    22644691.8034   22644698.6174  118998695.843 6  92726259.75144
      3187.917        2484.096
  23932123.557    23932121.9864   23932132.9164  125764205.212 6  97998108.80443
      3325.195        2591.072
 13  4  5 11 35 31.0000000  0 10G02G04G05G07G08G09G10G13G26G28
  22926701.750    22926700.4684   22926707.6544  120480620.107 6  93880993.17544
     -2390.366       -1862.613
  25034062.203    25034062.1564   25034073.5824  131554756.393 5 102510191.93841
     -3368.791       -2625.014
  21432778.946    21432778.8134   21432784.5814  112630059.554 8  87763708.93646
      1941.043        1512.500
  20825551.241    20825551.4564   20825556.8404  109439063.960 8  85277213.22147
     -1287.163       -1002.985
  20630720.268    20630719.8724   20630726.3594  108415245.867 8  84479438.18447
       831.849         648.192
  23939977.228    23939976.2384   23939987.4704  125805467.205 6  98030243.20742
      3900.162        3039.081
  20863049.425    20863048.4774   20863055.7804  109636082.658 8  85430726.92347
     -1821.017       -1418.973
  23401850.260    23401849.2804   23401858.7604  122977501.364 6  95826625.21243
     -2798.040       -2180.296
  22635596.733    22635596.4514   22635603.7154  118950900.981 6  92689017.03644
      3184.799        2481.661
  23922634.435    23922634.0844   23922644.4484  125714342.341 6  97959254.68443
      3323.291        2589.563
 13  4  5 11 35 46.0000000  0 10G02G04G05G07G08G09G10G13G26G28
  22933532.526    22933531.6964   22933538.9284  120516517.473 7  93908965.09244
     -2395.978       -1866.990
  25043676.307    25043677.1794   25043687.7064  131605280.239 5 102549561.06041
     -3367.807       -2624.256
  21427248.760    21427248.7854   21427254.3684  112600998.869 8  87741064.25046
      1933.726        1506.800
  20829235.834    20829235.8264   20829241.1664  109458425.337 8  85292299.99647
     -1294.330       -1008.566
  20628357.586    20628357.0894   20628363.6554  108402829.495 9  84469763.09347
       823.702         641.844
  23928848.262    23928847.1294   23928857.4564  125746983.077 6  97984671.21342
      3897.715        3037.176
  20868258.573    20868257.5914   20868264.8744  109663456.392 8  85452057.08247
     -1828.792       -1425.026
  23409838.572    23409838.7844   23409847.3244  123019486.071 6  95859340.48543
     -2799.909       -2181.734
  22626509.961    22626509.7094   22626517.3024  118903151.280 7  92651809.49944
      3181.812        2479.328
  23913151.018    23913150.1504   23913161.8344  125664507.706 6  97920422.57243
      3321.329        2588.068
 13  4  5 11 36  1.0000000  0 10G02G04G05G07G08G09G10G13G26G28
  22940379.391    22940378.9254   22940385.8754  120552498.850 7  93937002.46144
     -2401.494       -1871.292
  25053287.307    25053286.5864   25053300.3944  131655788.892 5 102588918.32041
     -3366.709       -2623.373
  21421739.749    21421739.7244   21421745.2324  112572048.258 8  87718505.34146
      1926.406        1501.096
  20832940.729    20832940.6404   20832945.8954  109477894.228 8  85307470.54647
     -1301.461       -1014.118
  20626017.906    20626017.4754   20626024.0304  108390535.263 8  84460183.17247
       815.589         635.524
  23917725.719    23917725.9154   23917735.4504  125688535.999 6  97939128.07542
      3895.280        3035.286
  20873489.813    20873488.8794   20873495.9864  109690946.421 8  85473477.86347
     -1836.492       -1431.028
  23417834.140    23417833.3644   23417842.9064  123061499.045 6  95892077.79343
     -2801.720       -2183.170
  22617432.553    22617432.3704   22617439.4934  118855446.606 7  92614637.06244
      3178.855        2477.013
  23903673.106    23903672.0314   23903683.4704  125614701.428 6  97881612.55343
      3319.561        2586.663
 13  4  5 11 36 16.0000000  0 10G02G04G05G07G08G09G10G13G26G28
  22947242.696    22947241.6314   22947248.8954  120588562.976 7  93965104.32144
     -2407.113       -1875.670
  25062895.642    25062895.7264   25062908.6494  131706281.099 5 102628262.77341
     -3365.707       -2622.556
  21416251.208    21416251.3934   21416256.9444  112543207.145 8  87696031.74846
      1919.024        1495.342
  20836665.659    20836665.7114   20836670.9414  109497469.566 8  85322724.04247
     -1308.654       -1019.728
  20623701.498    20623700.9694   20623707.6424  108378362.292 9  84450697.73947
       807.415         629.151
  23906611.112    23906610.1644   23906620.4434  125630125.263 6  97893613.28342
      3892.746        3033.314
  20878742.915    20878742.0364   20878749.1124  109718551.820 8  85494988.53947
     -1844.288       -1437.100
  23425834.172    23425833.6744   23425842.8654  123103539.296 6  95924836.35343
     -2803.674       -2184.683
  22608362.843    22608363.0414   22608370.1414  118807786.220 7  92577499.12544
      3175.837        2474.681
  23894200.023    23894199.8604   23894211.0884  125564922.881 6  97842824.16943
      3317.528        2585.087
 13  4  5 11 36 31.0000000  0 10G02G04G05G07G08G09G10G13G26G28
  22954121.372    22954120.4074   22954127.7904  120624711.355 7  93993271.81944
     -2412.678       -1880.001
  25072501.985    25072500.9564   25072513.5324  131756758.410 5 102667595.64641
     -3364.641       -2621.812
  21410784.222    21410784.3394   21410789.8824  112514477.654 8  87673645.13946
      1911.578        1489.538
  20840411.339    20840411.3024   20840416.5614  109517153.062 8  85338061.82147
     -1315.839       -1025.326
  20621408.524    20621407.9764   20621414.6064  108366312.385 8  84441308.20547
       799.232         622.774
  23895503.141    23895502.4374   23895512.5324  125571752.964 6  97848128.43642
      3890.173        3031.302
  20884018.322    20884017.4464   20884024.5444  109746274.147 8  85516590.33247
     -1852.059       -1443.158
  23433839.392    23433839.1214   23433848.7354  123145608.659 6  95957617.60243
     -2805.625       -2186.188
  22599301.789    22599301.9874   22599309.4284  118760172.096 6  92540397.24744
      3172.709        2472.247
  23884733.620    23884732.6094   23884743.6964  125515174.291 6  97804059.11043
      3315.546        2583.543
 13  4  5 11 36 46.0000000  0 10G02G04G05G07G08G09G10G13G26G28
  22961015.977    22961015.1764   22961022.4984  120660943.156 7  94021504.32944
     -2418.212       -1884.311
  25082103.795    25082104.7094   25082117.8224  131807219.959 6 102706916.19641
     -3363.524       -2620.901
  21405338.368    21405338.4614   21405344.0664  112485859.381 8  87651345.20046
      1904.183        1483.778
  20844177.474    20844177.3874   20844182.6434  109536944.012 8  85353483.32547
     -1322.936       -1030.859
  20619138.805    20619138.1814   20619144.8094  108354385.027 8  84432014.16047
       791.098         616.440
  23884402.770    23884401.7254   23884411.9004  125513418.783 6  97802673.29443
      3887.685        3029.378
  20889315.973    20889314.8754   20889322.0074  109774112.693 8  85538282.68647
     -1859.740       -1449.149
  23441851.127    23441850.0894   23441859.7964  123187706.441 6  95990420.98543
     -2807.434       -2187.594
  22590249.968    22590250.1774   22590257.5904  118712603.953 7  92503331.20644
      3169.677        2469.883
  23875272.494    23875271.4444   23875283.0644  125465455.497 6  97765317.29542
      3313.596        2582.018
 13  4  5 11 37  1.0000000  0 10G02G04G05G07G08G09G10G13G26G28
  22967926.362    22967925.7884   22967932.7224  120697257.635 6  94049801.26044
     -2423.750       -1888.636
  25091703.948    25091703.7294   25091716.4304  131857665.128 6 102746223.96141
     -3362.539       -2620.135
  21399913.498    21399913.8154   21399919.4724  112457352.289 8  87629131.88446
      1896.723        1477.965
  20847963.984    20847963.7144   20847969.0534  109556841.828 8  85368988.10347
     -1330.116       -1036.449
  20616892.255    20616891.7564   20616898.3944  108342580.029 8  84422815.46147
       782.883         610.039
  23873308.808    23873308.8784   23873318.4114  125455122.574 6  97757247.74342
      3885.086        3027.322
  20894635.315    20894634.3914   20894641.5394  109802067.023 8  85560065.25647
     -1867.518       -1455.208
  23449866.974    23449866.2624   23449875.8914  123229832.258 6  96023246.22543
     -2809.365       -2189.109
  22581206.832    22581206.7534   22581214.2424  118665081.495 6  92466300.73944
      3166.566        2467.478
  23865817.197    23865816.0194   23865827.2554  125415766.527 6  97726598.72243
      3311.565        2580.423
 13  4  5 11 37 16.0000000  0 10G02G04G05G07G08G09G10G13G26G28
  22974852.383    22974852.1784   22974858.8434  120733654.755 6  94078162.59544
     -2429.123       -1892.818
  25101300.342    25101300.0844   25101311.1934  131908093.718 6 102785518.87741
     -3361.259       -2619.152
  21394510.316    21394510.4404   21394515.9524  112428956.883 8  87607005.60646
      1889.393        1472.251
  20851770.638    20851770.5254   20851775.7304  109576846.431 8  85384576.09147
     -1337.103       -1041.895
  20614669.244    20614668.6314   20614675.2784  108330897.521 8  84413712.20947
       774.851         603.779
  23862223.367    23862222.5014   23862232.0034  125396864.856 6  97711852.17642
      3882.641        3025.436
  20899976.966    20899975.9484   20899983.1614  109830137.204 8  85581938.10247
     -1875.110       -1461.123
  23457888.661    23457887.8254   23457896.7414  123271986.335 6  96056093.47742
     -2811.136       -2190.476
  22572171.617    22572172.2894   22572179.7594  118617605.153 6  92429306.24744
      3163.623        2465.159
  23856366.671    23856365.6284   23856376.9504  125366108.039 5  97687903.91843
      3309.620        2578.918
 13  4  5 11 37 31.0000000  0 10G02G04G05G07G08G09G10G13G26G28
  22981793.999    22981793.5164   22981800.8164  120770132.484 6  94106586.73644
     -2434.576       -1897.065
  25110892.729    25110894.0074   25110905.4434  131958504.042 5 102824799.51241
     -3360.140       -2618.276
  21389127.664    21389127.9384   21389133.5454  112400671.879 8  87584965.35546
      1881.918        1466.433
  20855597.172    20855597.3074   20855602.4134  109596956.093 8  85400245.94247
     -1344.204       -1047.431
  20612468.914    20612468.4814   20612475.1594  108319335.861 8  84404703.12647
       766.683         597.418
  23851143.941    23851143.4984   23851153.3084  125338644.157 6  97666485.48542
      3880.096        3023.458
  20905340.379    20905339.2794   20905346.4504  109858321.554 8  85603899.90747
     -1882.824       -1467.130
  23465915.113    23465914.2414   23465923.7064  123314166.986 6  96088961.45742
     -2812.994       -2191.944
  22563146.212    22563145.9524   22563153.8394  118570173.459 6  92392346.51344
      3160.566        2462.768
  23846921.794    23846921.6474   23846933.4724  125316478.726 5  97649231.81642
      3307.575        2577.311
 13  4  5 11 37 46.0000000  0 10G02G04G05G07G08G09G10G13G26G28
  22988750.820    22988750.7184   22988758.0734  120806692.608 6  94135075.08044
     -2440.051       -1901.329
  25120482.965    25120482.3634   25120495.2944  132008897.826 5 102864067.24641
     -3358.944       -2617.341
  21383766.712    21383766.8804   21383772.4474  112372499.664 8  87563012.99046
      1874.409        1460.578
  20859444.425    20859444.5154   20859449.5054  109617172.704 8  85415999.13547
     -1351.325       -1052.979
  20610292.243    20610291.7514   20610298.3634  108307897.172 8  84395789.86347
       758.498         591.037
  23840073.246    23840071.9914   23840081.5434  125280463.020 6  97621149.57042
      3877.449        3021.377
  20910725.719    20910724.6774   20910731.8734  109886622.041 8  85625952.20647
     -1890.549       -1473.146
  23473947.343    23473946.4994   23473956.2384  123356376.243 6  96121851.72242
     -2814.892       -2193.425
  22554128.993    22554129.0194   22554136.6604  118522788.659 7  92355423.33644
      3157.452        2460.357
  23837484.803    23837483.6474   23837495.2034  125266881.179 6  97610584.49342
      3305.439        2575.662
 13  4  5 11 38  1.0000000  0 10G02G04G05G07G08G09G10G13G26G28
  22995723.722    22995723.4954   22995730.7204  120843334.189 6  94163626.89244
     -2445.498       -1905.569
  25130069.075    25130069.2814   25130080.6374  132059274.053 5 102903321.34141
     -3357.807       -2616.516
  21378427.208    21378427.2604   21378432.8814  112344439.979 8  87541148.31146
      1866.900        1454.730
  20863311.807    20863311.8804   20863316.8194  109637495.427 8  85431835.00647
     -1358.351       -1058.459
  20608139.024    20608138.3994   20608144.8834  108296580.892 8  84386971.98447
       750.354         584.691
  23829008.714    23829008.2544   23829017.0484  125222320.882 6  97575844.08342
      3874.817        3019.354
  20916133.104    20916132.0704   20916139.2624  109915037.879 8  85648094.39447
     -1898.231       -1479.136
  23481985.956    23481984.0164   23481993.4194  123398613.480 6  96154763.79942
     -2816.732       -2194.823
  22545121.162    22545121.2704   22545128.3534  118475450.295 6  92318536.32044
      3154.377        2457.961
  23828051.907    23828051.4124   23828062.3464  125217315.157 6  97571961.73642
      3303.340        2574.027
 13  4  5 11 38 16.0000000  0 10G02G04G05G07G08G09G10G13G26G28
  23002712.197    23002711.7804   23002718.8724  120880056.108 7  94192241.31344
     -2450.802       -1909.714
  25139652.437    25139652.0924   25139664.8854  132109631.989 5 102942561.12841
     -3356.591       -2615.500
  21373108.927    21373108.9774   21373114.7314  112316492.510 8  87519371.06946
      1859.429        1448.906
  20867199.287    20867199.2064   20867204.1914  109657923.527 8  85447752.99847
     -1365.362       -1063.919
  20606008.793    20606008.2624   20606014.6264  108285386.419 9  84378249.01847
       742.263         578.389
  23817951.196    23817950.8974   23817960.9704  125164217.457 6  97530568.75942
      3872.279        3017.368
  20921562.088    20921561.2674   20921568.4734  109943568.350 8  85670325.90647
     -1905.827       -1485.056
  23490028.303    23490026.9634   23490036.4954  123440878.114 6  96187697.20642
     -2818.552       -2196.276
  22536121.514    22536121.3914   22536128.7924  118428157.918 7  92281685.15544
      3151.293        2455.548
  23818625.768    23818625.5014   23818636.4784  125167780.336 6  97533363.27242
      3301.296        2572.440
 13  4  5 11 38 31.0000000  0 10G02G04G05G07G08G09G10G13G26G28
  23009715.825    23009715.1694   23009722.1044  120916858.461 6  94220918.40844
     -2456.168       -1913.887
  25149232.035    25149232.6374   25149243.3714  132159971.334 5 102981786.50741
     -3355.318       -2614.532
  21367812.078    21367812.2374   21367817.8834  112288657.536 8  87497681.49847
      1851.883        1443.027
  20871106.458    20871106.5844   20871111.6684  109678457.008 8  85463753.09647
     -1372.438       -1069.429
  20603901.806    20603901.3034   20603907.6104  108274313.912 8  84369621.09447
       734.081         572.011
  23806901.990    23806901.4704   23806911.6094  125106153.106 6  97485323.87543
      3869.658        3015.302
  20927013.340    20927012.3444   20927019.4734  109972213.487 8  85692646.77046
     -1913.514       -1491.047
  23498076.012    23498074.9894   23498083.8544  123483170.203 6  96220652.01842
     -2820.414       -2197.738
  22527130.734    22527130.6564   22527138.1184  118380911.861 6  92244870.07844
      3148.191        2453.126
  23809206.010    23809205.2764   23809217.0374  125118277.261 6  97494789.57142
      3299.118        2570.745
 13  4  5 11 38 46.0000000  0 10G02G04G05G07G08G09G10G13G26G28
  23016734.248    23016733.7704   23016740.5594  120953741.110 7  94249658.07544
     -2461.433       -1918.012
  25158807.697    25158808.7524   25158818.9934  132210292.080 5 103020997.36441
     -3354.034       -2613.539
  21362536.850    21362537.0114   21362542.5534  112260935.687 8  87476080.06346
      1844.375        1437.174
  20875033.822    20875033.9414   20875039.1824  109699095.852 8  85479835.30647
     -1379.419       -1074.880
  20601818.063    20601817.6434   20601823.8524  108263363.646 8  84361088.41947
       725.950         565.676
  23795860.434    23795859.7704   23795869.8154  125048128.389 6  97440109.88943
      3867.039        3013.275
  20932486.204    20932485.1714   20932492.3434  110000973.552 8  85715057.18846
     -1921.149       -1497.000
  23506129.391    23506128.5874   23506138.0214  123525489.741 5  96253628.21142
     -2822.219       -2199.123
  22518149.371    22518148.7744   22518156.5324  118333712.633 7  92208091.50244
      3145.074        2450.700
  23799791.562    23799790.6294   23799802.6364  125068806.575 6  97456241.10542
      3296.995        2569.075
 13  4  5 11 39  1.0000000  0 10G02G04G05G07G08G09G10G13G26G28
  23023767.488    23023767.2454   23023774.0474  120990702.592 7  94278459.17744
     -2466.750       -1922.137
  25168379.986    25168379.7284   25168392.5904  132260593.113 5 103060192.83741
     -3352.741       -2612.523
  21357283.289    21357283.1354   21357288.6594  112233326.224 8  87454566.20346
      1836.858        1431.318
  20878981.013    20878981.1864   20878986.5304  109719838.925 8  85495998.72047
     -1386.366       -1080.279
  20599757.379    20599757.0304   20599763.1534  108252534.665 8  84352650.25247
       717.884         559.385
  23784826.641    23784825.4204   23784835.5784  124990142.592 6  97394926.22243
      3864.415        3011.213
  20937980.498    20937979.7054   20937986.8574  110029847.304 8  85737556.18747
     -1928.711       -1502.891
  23514187.237    23514186.7554   23514196.1664  123567835.780 6  96286625.07342
     -2823.985       -2200.507
  22509176.051    22509176.1814   22509183.2094  118286559.394 6  92171348.74644
      3141.982        2448.296
  23790383.168    23790382.9334   23790394.8094  125019367.636 6  97417717.39142
      3294.831        2567.392
 13  4  5 11 39 16.0000000  0 10G02G04G05G07G08G09G10G13G26G28
  23030816.560    23030816.1374   23030822.5904  121027743.371 7  94307322.05244
     -2472.040       -1926.256
  25177947.869    25177947.7364   25177959.6254  132310874.895 5 103099373.30941
     -3351.421       -2611.487
  21352050.651    21352050.8664   21352056.2894  112205830.436 8  87433140.92847
      1829.209        1425.354
  20882948.796    20882948.3684   20882953.8074  109740686.892 8  85512243.87947
     -1393.408       -1085.771
  20597720.002    20597719.6214   20597725.7334  108241827.930 8  84344307.33947
       709.670         552.989
  23773799.785    23773798.8134   23773809.2004  124932196.845 6  97349773.78343
      3861.710        3009.108
  20943496.804    20943495.9924   20943503.2054  110058835.547 8  85760144.40446
     -1936.389       -1508.873
  23522250.173    23522250.0654   23522259.6304  123610209.345 6  96319643.36743
     -2825.848       -2201.957
  22500211.831    22500211.8594   22500219.3974  118239453.185 7  92134642.63144
      3138.814        2445.833
  23780982.101    23780980.7934   23780992.3254  124969961.827 6  97379219.47342
      3292.617        2565.670
 13  4  5 11 39 31.0000000  0 10G02G04G05G07G08G09G10G13G26G28
  23037880.231    23037880.0324   23037886.2754  121064863.096 7  94336246.46044
     -2477.226       -1930.307
  25187511.604    25187513.2534   25187525.5884  132361137.000 5 103138538.42541
     -3350.123       -2610.466
  21346840.109    21346840.2994   21346845.6924  112178448.293 8  87411804.19647
      1821.730        1419.530
  20886935.741    20886935.5174   20886941.0044  109761639.313 8  85528570.42347
     -1400.259       -1091.109
  20595705.858    20595705.4044   20595711.5594  108231243.187 8  84336059.49047
       701.611         546.709
  23762780.103    23762779.2564   23762789.8454  124874291.227 6  97304652.58843
      3859.078        3007.067
  20949034.922    20949033.9804   20949041.2494  110087937.930 8  85782821.56746
     -1943.928       -1514.747
  23530319.653    23530318.4704   23530328.5064  123652610.139 6  96352682.87743
     -2827.574       -2203.290
  22491256.650    22491256.7794   22491264.2554  118192393.923 7  92097973.10744
      3135.748        2443.428
  23771587.091    23771585.4064   23771596.6114  124920589.398 6  97340747.57342
      3290.421        2563.943
 13  4  5 11 39 46.0000000  0 10G02G04G05G07G08G09G10G13G26G28
  23044958.512    23044958.3154   23044964.7304  121102060.981 6  94365231.76644
     -2482.482       -1934.388
  25197072.888    25197074.0124   25197085.8724  132411378.852 5 103177687.78041
     -3348.732       -2609.419
  21341651.117    21341651.1984   21341656.6524  112151179.798 8  87390556.02847
      1814.073        1413.566
  20890942.291    20890942.4114   20890947.9314  109782695.837 8  85544978.08947
     -1407.283       -1096.579
  20593714.654    20593714.2374   20593720.5024  108220780.134 8  84327906.46047
       693.443         540.344
  23751768.695    23751767.6834   23751778.6954  124816425.612 6  97259562.58343
      3856.372        3004.970
  20954594.544    20954593.6564   20954600.9674  110117153.915 8  85805587.24147
     -1951.544       -1520.682
  23538393.244    23538392.8744   23538402.2174  123695037.848 6  96385743.36643
     -2829.433       -2204.754
  22482310.554    22482310.8144   22482318.5354  118145381.484 7  92061340.07244
      3132.606        2440.987
  23762197.691    23762196.3424   23762207.9094  124871250.363 6  97302301.66942
      3288.154        2562.201
 13  4  5 11 40  1.0000000  0 10G02G04G05G07G08G09G10G13G26G28
  23052051.962    23052051.5374   23052058.2194  121139336.695 6  94394277.71744
     -2487.681       -1938.449
  25206630.305    25206631.0304   25206642.3134  132461600.171 5 103216821.17341
     -3347.430       -2608.401
  21336483.810    21336483.8524   21336489.3134  112124025.213 8  87369396.61647
      1806.473        1407.648
  20894969.230    20894969.0914   20894974.5904  109803856.180 8  85561466.65347
     -1414.163       -1101.949
  20591746.797    20591746.3514   20591752.6814  108210438.920 8  84319848.36947
       685.344         534.036
  23740764.620    23740764.3954   23740774.3534  124758600.360 6  97214504.03643
      3853.635        3002.814
  20960175.987    20960174.8814   20960182.2814  110146483.592 8  85828441.50846
     -1959.133       -1526.587
  23546472.300    23546471.7334   23546481.3344  123737492.343 6  96418824.71443
     -2831.235       -2206.144
  22473373.577    22473373.6844   22473381.4044  118098416.020 7  92024743.64344
      3129.431        2438.508
  23752814.815    23752813.9164   23752825.3714  124821944.996 6  97263882.04142
      3285.813        2560.387
 13  4  5 11 40 16.0000000  0 10G02G04G05G07G08G09G10G13G26G28
  23059159.735    23059159.4314   23059166.2284  121176690.255 7  94423384.32744
     -2492.855       -1942.486
  25216182.983    25216182.7694   25216196.3864  132511800.897 5 103255938.48341
     -3346.035       -2607.306
  21331338.336    21331338.2744   21331343.7804  112096985.173 8  87348326.46647
      1798.820        1401.680
  20899015.760    20899015.5804   20899021.0994  109825120.555 8  85578036.28147
     -1421.133       -1107.369
  20589802.441    20589801.7194   20589808.0884  108200219.636 8  84311885.29247
       677.179         527.673
  23729768.396    23729768.3844   23729778.1544  124700815.922 6  97169477.28843
      3850.898        3000.687
  20965778.674    20965777.7844   20965785.2034  110175927.107 8  85851384.48346
     -1966.737       -1532.520
  23554555.971    23554555.7804   23554565.5774  123779973.950 6  96451927.20143
     -2833.065       -2207.580
  22464445.277    22464445.2804   22464453.3374  118051498.044 7  91988184.21144
      3126.263        2436.048
  23743439.105    23743438.0624   23743449.0434  124772674.090 6  97225489.24342
      3283.521        2558.579
 13  4  5 11 40 31.0000000  0 10G02G04G05G07G08G09G10G13G26G28
  23066282.845    23066281.9784   23066289.3684  121214121.151 6  94452551.18543
     -2497.933       -1946.436
  25225732.271    25225732.0744   25225745.7164  132561980.648 5 103295039.42241
     -3344.556       -2606.107
  21326214.422    21326214.4394   21326220.0584  112070059.739 8  87327345.61747
      1791.249        1395.777
  20903081.897    20903081.7784   20903087.2644  109846488.580 7  85594686.67147
     -1427.930       -1112.676
  20587880.646    20587880.3054   20587886.6864  108190122.207 8  84304017.16747
       669.150         521.413
  23718779.949    23718780.1854   23718790.0664  124643072.474 6  97124482.47343
      3848.203        2998.602
  20971403.332    20971402.2614   20971409.8174  110205484.018 8  85874415.81547
     -1974.190       -1538.327
  23562645.617    23562645.0784   23562654.4934  123822482.245 6  96485050.47743
     -2834.719       -2208.879
  22455526.124    22455525.9504   22455534.1264  118004627.685 7  91951661.88044
      3123.151        2433.625
  23734069.343    23734068.8904   23734079.4294  124723437.914 6  97187123.52542
      3281.281        2556.819
 13  4  5 11 40 46.0000000  0 10G02G04G05G07G08G09G10G13G26G28
  23073420.368    23073419.2784   23073426.7104  121251628.392 6  94481777.54543
     -2502.986       -1950.373
  25235276.848    25235276.1414   25235288.5494  132612138.482 5 103334123.33041
     -3343.084       -2604.981
  21321112.282    21321112.3984   21321118.0634  112043248.412 8  87306453.68747
      1783.635        1389.842
  20907167.424    20907167.5314   20907172.9494  109867959.165 8  85611416.98447
     -1434.762       -1117.996
  20585982.343    20585981.8824   20585988.2524  108180145.979 8  84296243.48147
       661.075         515.123
  23707800.032    23707799.5614   23707809.7964  124585369.382 6  97079519.10743
      3845.576        2996.548
  20977049.288    20977048.2584   20977055.7584  110235153.544 8  85897534.90346
     -1981.686       -1544.165
  23570739.654    23570739.5814   23570748.4964  123865016.680 6  96518194.12643
     -2836.439       -2210.228
  22446615.944    22446615.6554   22446624.0124  117957804.133 7  91915176.02644
      3120.045        2431.196
  23724705.508    23724705.4264   23724716.9024  124674236.040 6  97148784.52442
      3279.031        2555.073
 13  4  5 11 41  1.0000000  0 10G02G04G05G07G08G09G10G13G26G28
  23080571.909    23080571.6104   23080578.8394  121289212.431 6  94511063.73943
     -2508.152       -1954.388
  25244817.631    25244817.8504   25244829.8014  132662274.680 6 103373190.34541
     -3341.677       -2603.881
  21316032.241    21316032.3834   21316038.0294  112016552.376 8  87285651.58747
      1775.903        1383.820
  20911273.172    20911272.8834   20911278.3714  109889533.036 8  85628227.77547
     -1441.677       -1123.383
  20584107.059    20584106.6564   20584113.0804  108170291.761 9  84288564.87047
       652.896         508.749
  23696827.386    23696826.9114   23696836.9324  124527707.731 6  97034588.04043
      3842.749        2994.334
  20982716.879    20982715.8284   20982723.2714  110264936.403 8  85920742.30246
     -1989.294       -1550.100
  23578839.233    23578838.2704   23578847.6134  123907577.896 6  96551358.64443
     -2838.252       -2211.622
  22437714.775    22437714.4414   22437722.7514  117911028.468 7  91878727.49144
      3116.808        2428.664
  23715350.592    23715349.2044   23715360.6894  124625069.683 6  97110473.19742
      3276.559        2553.164
 13  4  5 11 41 16.0000000  0 10G02G04G05G07G08G09G10G13G26G28
  23087739.292    23087737.7394   23087745.4414  121326872.125 7  94540408.89144
     -2513.096       -1958.257
  25254353.417    25254354.4034   25254368.0324  132712388.517 5 103412239.96041
     -3340.126       -2602.677
  21310974.105    21310974.0454   21310979.7864  111989971.065 8  87264938.89147
      1768.298        1377.891
  20915397.638    20915397.6894   20915403.2254  109911209.234 8  85645118.30547
     -1448.431       -1128.644
  20582254.979    20582254.5144   20582260.9114  108160558.727 8  84280980.68947
       644.895         502.512
  23685861.944    23685862.2204   23685872.4514  124470087.083 6  96989688.91543
      3840.053        2992.271
  20988405.593    20988404.7614   20988412.2514  110294831.674 8  85944037.29746
     -1996.691       -1555.861
  23586942.678    23586942.3784   23586952.0504  123950165.209 6  96584543.48743
     -2839.950       -2212.937
  22428822.400    22428821.9874   22428830.6664  117864300.162 7  91842315.84044
      3113.698        2426.257
  23706000.482    23706000.0254   23706011.4114  124575938.472 6  97072189.25443
      3274.284        2551.410
 13  4  5 11 41 31.0000000  0 10G02G04G05G07G08G09G10G13G26G28
  23094919.602    23094918.7084   23094926.3754  121364607.192 6  94569812.78844
     -2518.212       -1962.232
  25263885.456    25263885.6284   25263900.1954  132762479.650 5 103451271.85641
     -3338.669       -2601.562
  21305937.900    21305937.7764   21305943.5634  111963505.081 8  87244316.05047
      1760.526        1371.836
  20919542.327    20919542.0884   20919547.5904  109932987.895 8  85662088.67647
     -1455.370       -1134.048
  20580426.033    20580425.4684   20580431.8904  108150947.180 8  84273491.16647
       636.701         496.132
  23674905.950    23674904.9184   23674914.9734  124412507.914 6  96944822.12243
      3837.208        2990.034
  20994115.952    20994115.0554   20994122.5194  110324839.329 8  85967419.85647
     -2004.279       -1561.774
  23595052.076    23595051.8304   23595060.9384  123992778.683 6  96617748.71543
     -2841.815       -2214.396
  22419939.469    22419938.8884   22419947.6014  117817619.565 7  91805941.38144
      3110.416        2423.695
  23696658.568    23696657.2364   23696668.6484  124526842.907 6  97033933.10143
      3271.826        2549.470
 13  4  5 11 41 46.0000000  0 10G02G04G05G07G08G09G10G13G26G28
  23102114.382    23102113.9994   23102121.7194  121402417.880 6  94599275.59744
     -2523.299       -1966.211
  25273415.092    25273415.0934   25273425.4644  132812548.466 5 103490286.37041
     -3337.223       -2600.426
  21300923.363    21300923.5124   21300929.1894  111937155.039 8  87223783.56447
      1752.703        1365.738
  20923706.128    20923705.9664   20923711.4374  109954869.090 8  85679138.94847
     -1462.252       -1139.415
  20578620.031    20578619.6534   20578625.9984  108141457.458 8  84266096.57947
       628.509         489.748
  23663955.858    23663956.1694   23663965.6124  124354970.922 6  96899988.17643
      3834.307        2987.772
  20999847.544    20999846.8464   20999854.3314  110354959.756 8  85990890.29646
     -2011.866       -1567.684
  23603166.056    23603166.4394   23603174.9694  124035418.898 6  96650974.79143
     -2843.656       -2215.814
  22411066.148    22411065.3454   22411073.7104  117770987.355 7  91769604.61944
      3107.073        2421.098
  23687322.441    23687321.9854   23687332.7994  124477783.978 6  96995705.48843
      3269.294        2547.474
 13  4  5 11 42  1.0000000  0 10G02G04G05G07G08G09G10G13G26G28
  23109324.623    23109323.5644   23109331.4014  121440303.877 6  94628797.09244
     -2528.238       -1970.059
  25282937.259    25282937.7844   25282950.8454  132862594.569 5 103529283.18741
     -3335.652       -2599.205
  21295931.431    21295931.4394   21295937.1254  111910921.349 8  87203341.73847
      1745.022        1359.764
  20927889.371    20927889.3714   20927894.8354  109976852.835 8  85696269.12447
     -1468.996       -1144.671
  20576837.485    20576836.9404   20576843.3624  108132089.643 8  84258796.98347
       620.457         483.473
  23653014.995    23653015.2234   23653025.1304  124297476.410 6  96855187.33443
      3831.517        2985.607
  21005600.885    21005600.0214   21005607.4644  110385192.955 8  86014448.61147
     -2019.305       -1573.483
  23611285.520    23611285.7804   23611294.5804  124078085.762 6  96684221.60743
     -2845.354       -2217.147
  22402201.037    22402200.6674   22402208.8854  117724403.684 7  91733305.68744
      3103.947        2418.658
  23677994.078    23677992.8774   23678004.4104  124428762.176 6  96957506.79743
      3266.856        2545.582
 13  4  5 11 42 16.0000000  0 10G02G04G05G07G08G09G10G13G26G28
  23116547.937    23116547.1994   23116555.2004  121478264.511 6  94658376.72744
     -2533.132       -1973.865
  25292456.732    25292456.6534   25292469.7864  132912617.629 5 103568262.00441
     -3334.059       -2597.962
  21290961.325    21290961.4704   21290967.1304  111884803.969 8  87182990.54847
      1737.333        1353.766
  20932092.448    20932092.2034   20932097.6284  109998938.659 8  85713478.84147
     -1475.736       -1149.919
  20575078.079    20575077.4064   20575083.9224  108122843.568 8  84251592.25247
       612.403         477.195
  23642082.703    23642082.4834   23642092.3564  124240024.372 6  96810419.59343
      3828.793        2983.468
  21011375.459    21011374.5974   21011382.0654  110415538.409 8  86038094.39146
     -2026.720       -1579.259
  23619409.413    23619410.3104   23619419.0554  124120778.878 6  96717488.90443
     -2847.031       -2218.462
  22393345.816    22393345.3384   22393353.7144  117677868.471 7  91697044.50944
      3100.801        2416.202
  23668672.177    23668671.5394   23668682.4594  124379777.593 6  96919337.12443
      3264.464        2543.731
 13  4  5 11 42 31.0000000  0 10G02G04G05G07G08G09G10G13G26G28
  23123785.598    23123784.9994   23123793.1724  121516298.423 6  94688013.46144
     -2538.079       -1977.721
  25301970.323    25301970.5524   25301984.3204  132962616.110 5 103607221.73841
     -3332.436       -2596.703
  21286013.479    21286013.4944   21286019.1134  111858802.169 8  87162729.41747
      1729.571        1347.716
  20936314.114    20936314.1634   20936319.6024  110021125.253 8  85730767.08847
     -1482.500       -1155.198
  20573341.529    20573340.9194   20573347.4144  108113718.157 8  84244481.54047
       604.312         470.893
  23631157.596    23631157.2134   23631167.7004  124182613.954 6  96765684.27443
      3825.927        2981.246
  21017171.345    21017170.3094   21017177.7564  110445995.027 8  86061826.79747
     -2034.157       -1585.060
  23627539.283    23627538.6504   23627548.3034  124163497.395 6  96750775.97943
     -2848.769       -2219.818
  22384499.536    22384499.5574   22384507.2964  117631380.911 7  91660820.46144
      3097.550        2413.673
  23659357.536    23659357.2384   23659367.7084  124330829.464 6  96881195.83543
      3261.937        2541.762
 13  4  5 11 42 46.0000000  0 10G02G04G05G07G08G09G10G13G26G28
  23131037.647    23131036.8664   23131045.0454  121554406.617 6  94717708.07444
     -2542.998       -1981.548
  25311481.132    25311479.8254   25311495.6694  133012591.018 5 103646163.02141
     -3330.887       -2595.471
  21281087.630    21281087.7054   21281093.3944  111832917.382 8  87142559.46147
      1721.777        1341.642
  20940555.726    20940555.5494   20940560.9734  110043413.572 8  85748134.59347
     -1489.249       -1160.457
  20571628.122    20571627.6514   20571634.0554  108104714.558 8  84237465.74947
       596.203         464.573
  23620240.926    23620240.7314   23620250.9294  124125246.595 6  96720982.52343
      3823.070        2979.008
  21022988.336    21022987.3674   21022994.8064  110476563.667 8  86085646.48947
     -2041.625       -1590.873
  23635673.193    23635672.9524   23635682.1044  124206242.284 6  96784083.61143
     -2850.506       -2221.187
  22375662.540    22375662.1144   22375669.9254  117584942.124 7  91624634.42144
      3094.289        2411.139
  23650050.505    23650050.0194   23650060.8534  124281919.244 6  96843084.08843
      3259.418        2539.803
 13  4  5 11 43  1.0000000  0 10G02G04G05G07G08G09G10G13G26G28
  23138302.912    23138302.6864   23138310.1734  121592587.247 6  94747459.15844
     -2547.842       -1985.331
  25320986.274    25320984.6434   25320999.7034  133062540.668 5 103685084.70341
     -3329.146       -2594.138
  21276184.235    21276184.0444   21276189.8104  111807148.743 8  87122480.01047
      1713.972        1335.560
  20944816.020    20944816.0414   20944821.4174  110065802.316 8  85765580.35747
     -1495.987       -1165.702
  20569937.714    20569937.2664   20569943.6584  108095831.555 8  84230543.92547
       588.121         458.276
  23609332.597    23609332.2214   23609341.7534  124067921.441 6  96676313.65643
      3820.223        2976.787
  21028826.377    21028825.3974   21028832.8944  110507243.101 8  86109552.52047
     -2049.037       -1596.654
  23643812.862    23643811.4474   23643820.7734  124249012.193 5  96817410.73743
     -2852.214       -2222.499
  22366834.589    22366834.1064   22366842.1754  117538551.329 6  91588485.76744
      3091.054        2408.624
  23640749.917    23640749.7234   23640760.0164  124233046.279 6  96805001.39443
      3256.893        2537.834
 13  4  5 11 43 16.0000000  0 10G02G04G05G07G08G09G10G13G26G28
  23145582.931    23145582.4974   23145589.5024  121630840.340 6  94777266.68444
     -2552.697       -1989.109
  25330487.436    25330487.6314   25330500.9254  133112465.214 5 103723986.74341
     -3327.549       -2592.847
  21271302.823    21271302.6064   21271308.3324  111781496.746 8  87102491.45247
      1706.172        1329.483
  20949095.615    20949095.6084   20949100.9634  110088291.508 8  85783104.39447
     -1502.697       -1170.934
  20568270.485    20568269.9064   20568276.2284  108087069.359 8  84223716.24347
       580.042         451.981
  23598431.748    23598431.5904   23598441.5964  124010638.989 6  96631678.06143
      3817.323        2974.535
  21034685.699    21034684.6884   21034692.1564  110538033.495 8  86133545.00746
     -2056.462       -1602.438
  23651955.026    23651954.9614   23651964.8934  124291807.510 6  96850757.67343
     -2853.944       -2223.846
  22358015.950    22358015.4244   22358023.6294  117492208.840 7  91552374.77444
      3087.775        2406.071
  23631456.906    23631456.6164   23631466.8644  124184211.255 6  96766948.24643
      3254.304        2535.808
 13  4  5 11 43 31.0000000  0 10G02G04G05G07G08G09G10G13G26G28
  23152875.641    23152875.6544   23152883.0814  121669167.078 6  94807131.61044
     -2557.535       -1992.880
  25339982.895    25339982.6264   25339997.8774  133162365.947 5 103762870.27541
     -3325.861       -2591.545
  21266443.755    21266443.7654   21266449.4144  111755963.100 8  87082595.11047
      1698.306        1323.354
  20953394.783    20953394.5874   20953399.9394  110110882.519 8  85800707.76347
     -1509.448       -1176.194
  20566626.333    20566625.7864   20566632.1724  108078429.543 8  84216983.91747
       571.921         445.654
  23587539.235    23587539.3584   23587549.3634  123953400.912 6  96587077.04743
      3814.391        2972.273
  21040566.183    21040565.1934   21040572.7314  110568936.202 8  86157625.01646
     -2063.893       -1608.224
  23660103.624    23660103.8344   23660113.2954  124334629.591 6  96884125.45442
     -2855.684       -2225.199
  22349206.268    22349206.2794   22349214.1994  117445916.362 7  91516302.73944
      3084.506        2403.513
  23622171.791    23622171.0594   23622180.7144  124135416.010 6  96728926.09743
      3251.711        2533.789
 13  4  5 11 43 46.0000000  0 10G02G04G05G07G08G09G10G13G26G28
  23160183.087    23160183.0834   23160190.1684  121707565.858 6  94837052.65444
     -2562.352       -1996.629
  25349474.575    25349473.5544   25349487.9444  133212241.228 5 103801733.92241
     -3324.169       -2590.249
  21261607.358    21261607.2264   21261612.8104  111730546.855 8  87062790.25247
      1690.491        1317.268
  20957712.524    20957712.6004   20957718.0284  110133573.800 8  85818389.27147
     -1516.106       -1181.374
  20565005.300    20565004.7264   20565011.1724  108069910.929 8  84210346.03347
       563.869         439.380
  23576655.488    23576655.9634   23576665.2004  123896206.167 6  96542509.79043
      3811.518        2970.003
  21046467.920    21046466.8374   21046474.3584  110599949.746 8  86181791.38746
     -2071.267       -1613.976
  23668257.536    23668257.6134   23668267.1184  124377477.171 6  96917513.10442
     -2857.363       -2226.510
  22340406.453    22340406.3644   22340414.4174  117399672.840 7  91480268.85644
      3081.253        2400.964
  23612893.252    23612893.2984   23612902.6644  124086659.704 6  96690934.28843
      3249.097        2531.745
 13  4  5 11 44  1.0000000  0 10G02G04G05G07G08G09G10G13G26G28
  23167504.027    23167503.9324   23167510.6654  121746036.614 6  94867029.79844
     -2567.112       -2000.349
  25358960.410    25358960.3824   25358974.5854  133262091.265 5 103840577.91341
     -3322.521       -2588.962
  21256793.085    21256793.2244   21256798.6994  111705248.701 8  87043077.41447
      1682.605        1311.121
  20962049.760    20962049.8134   20962055.1884  110156365.702 8  85836149.18547
     -1522.848       -1186.635
  20563407.312    20563406.8684   20563413.2834  108061513.812 8  84203802.83047
       555.769         433.066
  23565780.489    23565780.3544   23565789.6554  123839055.475 6  96497976.85943
      3808.570        2967.706
  21052390.648    21052389.6534   21052397.2434  110631074.423 8  86206044.35746
     -2078.675       -1619.749
  23676417.124    23676416.0124   23676425.6524  124420350.847 6  96950921.08542
     -2859.116       -2227.888
  22331616.287    22331615.9014   22331623.8104  117353478.778 7  91444273.50744
      3077.951        2398.404
  23603623.001    23603622.3144   23603632.4424  124037943.113 6  96652973.42143
      3246.421        2529.678
 13  4  5 11 44 16.0000000  0 10G02G04G05G07G08G09G10G13G26G28
  23174837.989    23174838.0334   23174844.9764  121784578.580 6  94897062.43243
     -2571.811       -2004.002
  25368441.889    25368440.2824   25368455.6444  133311915.206 5 103879401.57241
     -3320.750       -2587.599
  21252001.585    21252001.5984   21252007.0904  111680068.395 8  87023456.40347
      1674.808        1305.049
  20966405.991    20966406.0384   20966411.4434  110179257.556 8  85853986.98147
     -1529.383       -1191.726
  20561832.353    20561831.9634   20561838.3784  108053237.725 8  84197353.93047
       547.759         426.828
  23554913.136    23554913.2604   23554922.7714  123781948.562 6  96453478.04243
      3805.693        2965.473
  21058334.621    21058333.5194   21058341.1694  110662309.654 8  86230383.47346
     -2085.982       -1625.441
  23684580.050    23684578.6954   23684589.4164  124463249.725 6  96984348.71242
     -2860.762       -2229.171
  22322835.169    22322835.0274   22322842.8904  117307333.797 6  91408316.41744
      3074.734        2395.895
  23594360.092    23594359.4634   23594368.9534  123989265.927 6  96615043.26343
      3243.809        2527.648
 13  4  5 11 44 31.0000000  0 10G02G04G05G07G08G09G10G13G26G28
  23182186.068    23182186.0534   23182193.1604  121823192.865 6  94927151.41343
     -2576.642       -2007.765
  25377919.103    25377917.9964   25377932.3234  133361714.055 5 103918205.68741
     -3319.079       -2586.262
  21247232.572    21247232.6884   21247238.1814  111655007.748 8  87003928.63747
      1666.764        1298.772
  20970781.506    20970781.4774   20970786.8674  110202250.295 8  85871903.38847
     -1536.199       -1197.038
  20560280.936    20560280.4114   20560286.8564  108045084.078 8  84191000.44447
       539.534         420.413
  23544054.892    23544054.2524   23544063.9964  123724887.016 6  96409014.57043
      3802.635        2963.105
  21064299.733    21064298.6964   21064306.3804  110693656.675 8  86254809.69846
     -2093.474       -1631.281
  23692749.189    23692747.6354   23692757.9024  124506175.259 6  97017797.10442
     -2862.550       -2230.566
  22314063.910    22314063.5654   22314071.3624  117261239.609 7  91372398.90144
      3071.277        2393.205
  23585104.447    23585104.2094   23585113.3974  123940630.152 6  96577145.38243
      3241.055        2525.489
 13  4  5 11 44 46.0000000  0 10G02G04G05G07G08G09G10G13G26G28
  23189548.486    23189547.2084   23189554.6904  121861878.187 6  94957295.74043
     -2581.288       -2011.396
  25387389.486    25387389.8484   25387404.9574  133411486.906 5 103956989.56141
     -3317.206       -2584.832
  21242486.359    21242486.4484   21242491.9474  111630065.962 8  86984493.47847
      1658.895        1292.642
  20975175.713    20975175.8574   20975181.1634  110225342.812 8  85889897.54347
     -1542.740       -1202.137
  20558752.425    20558751.8944   20558758.3864  108037051.851 8  84184741.56147
       531.503         414.159
  23533204.701    23533204.3224   23533213.8404  123667870.251 6  96364586.00143
      3799.704        2960.809
  21070286.090    21070284.9294   21070292.5624  110725114.359 8  86279322.15346
     -2100.795       -1636.985
  23700921.631    23700921.3304   23700931.1634  124549126.381 6  97051265.42542
     -2864.137       -2231.791
  22305302.238    22305301.7264   22305309.5094  117215195.407 7  91336520.33744
      3068.013        2390.662
  23575857.810    23575856.8104   23575866.6154  123892035.221 6  96539279.31643
      3238.378        2523.408
 13  4  5 11 45  1.0000000  0 10G02G04G05G07G08G09G10G13G26G28
  23196923.032    23196922.2374   23196929.8024  121900632.959 6  94987494.19443
     -2585.982       -2015.056
  25396856.630    25396856.4584   25396870.9764  133461232.157 5 103995751.92741
     -3315.456       -2583.443
  21237762.740    21237762.6134   21237767.9544  111605242.112 8  86965150.22347
      1650.991        1286.479
  20979588.679    20979588.8964   20979594.2904  110248533.831 8  85907968.45447
     -1549.333       -1207.272
  20557246.761    20557246.3334   20557252.7844  108029139.888 8  84178576.39947
       523.449         407.881
  23522363.118    23522362.5474   23522372.2224  123610897.341 6  96320191.60143
      3796.703        2958.470
  21076293.003    21076292.0534   21076299.6664  110756681.571 8  86303919.95146
     -2108.133       -1642.700
  23709099.959    23709099.3924   23709108.9554  124592102.144 6  97084752.96342
     -2865.820       -2233.108
  22296549.271    22296549.1594   22296557.0394  117169200.230 7  91300679.96744
      3064.677        2388.064
  23566617.706    23566616.9024   23566626.4624  123843480.377 6  96501444.46743
      3235.626        2521.260
 13  4  5 11 45 16.0000000  0 10G02G04G05G07G08G09G10G13G26G28
  23204310.856    23204310.6054   23204317.4204  121939457.190 6  95017746.77243
     -2590.610       -2018.655
  25406316.703    25406317.4854   25406332.5634  133510949.802 5 104034492.76241
     -3313.615       -2582.002
  21233061.283    21233061.2854   21233066.6964  111580536.762 8  86945899.30847
      1643.019        1280.276
  20984020.759    20984020.7004   20984026.1184  110271823.451 8  85926116.19647
     -1555.987       -1212.453
  20555764.081    20555763.6704   20555770.1424  108021348.488 8  84172505.18147
       515.362         401.580
  23511530.021    23511529.4974   23511538.7174  123553968.718 6  96275831.71643
      3793.706        2956.131
  21082320.827    21082319.9344   21082327.5374  110788358.206 8  86328603.02046
     -2115.463       -1648.413
  23717283.252    23717282.5554   23717292.1204  124635102.809 6  97118259.89842
     -2867.638       -2234.506
  22287805.910    22287805.8924   22287813.6184  117123254.516 7  91264878.13544
      3061.353        2385.463
  23557385.840    23557385.2894   23557394.2764  123794966.196 6  96463641.32143
      3232.866        2519.116
 13  4  5 11 45 31.0000000  0 10G02G04G05G07G08G09G10G13G26G28
  23211712.302    23211711.9594   23211718.8554  121978350.931 6  95048053.50143
     -2595.234       -2022.234
  25415771.600    25415773.4034   25415789.3554  133560640.000 4 104073212.18841
     -3311.785       -2580.585
  21228382.613    21228382.7444   21228388.1154  111555950.734 8  86926741.37047
      1635.133        1274.128
  20988471.153    20988471.3464   20988476.8374  110295211.967 8  85944341.00147
     -1562.496       -1217.533
  20554304.479    20554304.0034   20554310.4974  108013678.000 9  84166528.17347
       507.367         395.353
  23500704.987    23500704.5314   23500714.4374  123497085.155 6  96231506.92343
      3790.736        2953.811
  21088369.722    21088368.7654   21088376.2694  110820144.634 8  86353371.63746
     -2122.722       -1654.065
  23725470.861    23725470.4474   23725479.9304  124678128.633 6  97151786.43542
     -2869.216       -2235.757
  22279072.655    22279072.3114   22279079.9604  117077358.855 7  91229115.30944
      3058.045        2382.888
  23548160.969    23548160.4654   23548169.8924  123746493.603 6  96425870.59043
      3230.103        2516.966
 13  4  5 11 45 46.0000000  0 10G02G04G05G07G08G09G10G13G26G28
  23219126.848    23219125.9154   23219133.1584  122017313.407 6  95078413.81243
     -2599.816       -2025.829
  25425224.255    25425223.1494   25425237.8814  133610302.051 5 104111909.64541
     -3309.838       -2579.093
  21223726.694    21223726.6624   21223732.2124  111531483.595 8  86907676.06747
      1627.139        1267.899
  20992940.663    20992940.5854   20992946.2094  110318698.638 8  85962642.29347
     -1569.080       -1222.661
  20552867.698    20552867.3224   20552873.7574  108006128.100 9  84160645.13547
       499.277         389.047
  23489888.730    23489888.5034   23489898.0844  123440246.443 6  96187217.09943
      3787.723        2951.476
  21094439.395    21094438.4094   21094445.8694  110852040.345 8  86378225.41346
     -2130.052       -1659.778
  23733662.649    23733662.7594   23733672.2774  124721178.925 6  97185332.05342
     -2870.861       -2237.051
  22270347.912    22270348.0814   22270355.7334  117031512.969 7  91193391.28944
      3054.692        2380.279
  23538945.379    23538944.5634   23538953.6194  123698062.502 6  96388132.16343
      3227.313        2514.792
 13  4  5 11 46  1.0000000  0 10G02G04G05G07G08G09G10G13G26G28
  23226554.107    23226553.5254   23226560.4194  122056344.655 6  95108827.70343
     -2604.373       -2029.372
  25434669.290    25434669.1504   25434683.2974  133659936.072 5 104150585.32741
     -3308.030       -2577.684
  21219093.406    21219093.5514   21219099.0204  111507136.161 8  86888704.04747
      1619.162        1261.686
  20997428.821    20997428.6164   20997434.3094  110342283.696 8  85981020.24147
     -1575.610       -1227.745
  20551454.164    20551453.6024   20551460.1104  107998699.080 9  84154856.28647
       491.237         382.782
  23479080.740    23479080.9134   23479090.5744  123383453.233 6  96142962.72543
      3784.698        2949.103
  21100529.580    21100528.8144   21100536.2244  110884045.509 8  86403164.47646
     -2137.323       -1665.446
  23741859.874    23741859.2894   23741868.5234  124764254.195 6  97218897.14642
     -2872.519       -2238.330
  22261633.497    22261633.6524   22261641.1204  116985717.472 7  91157706.50744
      3051.350        2377.681
  23529736.741    23529736.1314   23529745.4564  123649673.702 6  96350426.70843
      3224.511        2512.593
 13  4  5 11 46 16.0000000  0 10G02G04G05G07G08G09G10G13G26G28
  23233994.193    23233993.4604   23234000.9614  122095443.795 6  95139294.49743
     -2608.905       -2032.897
  25444109.026    25444109.6184   25444123.5944  133709541.363 5 104189238.61941
     -3306.089       -2576.172
  21214483.097    21214483.1554   21214488.6444  111482908.235 8  86869825.14847
      1611.195        1255.476
  21001935.593    21001935.3354   21001941.0744  110365966.581 8  85999474.42847
     -1582.119       -1232.817
  20550063.218    20550062.8794   20550069.3144  107991390.534 8  84149161.31147
       483.221         376.535
  23468282.190    23468282.1674   23468292.0594  123326705.207 6  96098743.57443
      3781.669        2946.747
  21106640.776    21106639.8984   21106647.3164  110916159.486 8  86428188.32946
     -2144.565       -1671.092
  23750061.433    23750061.3174   23750071.0114  124807354.078 6  97252481.38942
     -2874.153       -2239.594
  22252928.626    22252928.5564   22252935.9184  116939971.988 7  91122060.70544
      3047.997        2375.055
  23520536.612    23520535.7864   23520545.1204  123601326.997 6  96312754.03343
      3221.674        2510.394
 13  4  5 11 46 31.0000000  0 10G02G04G05G07G08G09G10G13G26G28
  23241447.786    23241446.5374   23241454.2934  122134610.695 6  95169814.08243
     -2613.364       -2036.384
  25453542.853    25453543.5104   25453556.9114  133759117.835 5 104227869.40241
     -3304.142       -2574.637
  21209895.455    21209895.6874   21209901.0404  111458800.315 8  86851039.76047
      1603.181        1249.229
  21006460.706    21006460.6494   21006466.3854  110389747.166 8  86018004.74147
     -1588.621       -1237.888
  20548695.537    20548695.1254   20548701.4874  107984202.614 9  84143560.33547
       475.181         370.273
  23457492.539    23457492.1274   23457501.9094  123270002.907 6  96054560.03043
      3778.644        2944.383
  21112772.683    21112771.7544   21112779.0864  110948382.302 8  86453296.99247
     -2151.800       -1676.727
  23758267.497    23758267.9384   23758276.5944  124850478.596 6  97286084.84042
     -2875.792       -2240.869
  22244233.182    22244232.7654   22244240.7044  116894276.949 7  91086454.20844
      3044.649        2372.448
  23511344.994    23511344.0084   23511353.0504  123553023.031 6  96275114.67043
      3218.846        2508.198
 13  4  5 11 46 46.0000000  0 10G02G04G05G07G08G09G10G13G26G28
  23248914.243    23248912.6554   23248920.2604  122173844.793 6  95200386.03943
     -2617.812       -2039.850
  25462970.679    25462971.6034   25462987.1414  133808664.944 5 104266477.34241
     -3302.139       -2573.062
  21205330.632    21205331.0044   21205336.3224  111434812.503 8  86832347.95947
      1595.190        1243.005
  21011004.528    21011004.5114   21011010.1824  110413625.016 8  86036610.84547
     -1595.084       -1242.922
  20547350.406    20547350.2744   20547356.5794  107977135.032 8  84138053.12747
       467.170         364.030
  23446710.502    23446710.8494   23446720.5224  123213346.187 6  96010412.00243
      3775.618        2942.025
  21118925.066    21118924.1954   21118931.5604  110980713.668 8  86478490.23746
     -2159.021       -1682.351
  23766479.122    23766478.6554   23766488.3744  124893627.542 6  97319707.31742
     -2877.378       -2242.107
  22235546.946    22235547.0944   22235554.9484  116848632.306 7  91050886.99844
      3041.309        2369.851
  23502161.011    23502160.0694   23502169.1034  123504761.992 6  96237508.77243
      3215.966        2505.955
 13  4  5 11 47  1.0000000  0 10G02G04G05G07G08G09G10G13G26G28
  23256392.803    23256391.5624   23256399.3354  122213146.133 6  95231010.38743
     -2622.364       -2043.389
  25472394.543    25472395.3274   25472409.3134  133858183.012 5 104305062.60541
     -3300.265       -2571.627
  21200789.023    21200789.2974   21200794.5144  111410945.382 8  86813750.20247
      1587.110        1236.706
  21015567.204    21015566.9804   21015572.5914  110437600.484 8  86055293.01247
     -1601.603       -1248.000
  20546028.729    20546028.2464   20546034.6654  107970188.307 8  84132640.09247
       459.083         357.725
