     2.11           OBSERVATION DATA    G (GPS)             RINEX VERSION / TYPE
teqc  2013Mar15                         20130704 16:40:11UTCPGM / RUN BY / DATE
Test_Nave_2013_04_05                                        MARKER NAME
                                                            OBSERVER / AGENCY
                    u-blox                                  REC # / TYPE / VERS
                                                            ANT # / TYPE
        0.0000        0.0000        0.0000                  APPROX POSITION XYZ
        0.0000        0.0000        0.0000                  ANTENNA: DELTA H/E/N
     1     0                                                WAVELENGTH FACT L1/2
     4    C1    L1    S1    D1                              # / TYPES OF OBSERV
    15.0000                                                 INTERVAL
  2013     4     5    11    35    0.9980011     GPS         TIME OF FIRST OBS
Linux2.6.32-279.el6.x86_64|x86_64|gcc|Win64-MinGW64|=       COMMENT
     2.10           OBSERVATION DATA    G (GPS)             COMMENT
goGPS                                                       COMMENT
                                                            END OF HEADER
 13  4  5 11 35  0.9980011  0 11G02G04G05G07G08G09G10G13G23G26G28
  22694251.033 7 119259082.69527        45.00027      -437.87427
  24795985.191 6 130303762.29226        40.00026     -1429.47026
  21225107.788 7 111538691.29927        47.00027      3896.87627
  20599486.832 7 108251025.18527        43.00027       668.13127
  20416721.126 7 107290576.33427        45.00027      2789.13827
  23743417.891 7 124772499.22727        42.00027      5845.55527
  20633898.249 7 108431867.13327        47.00027       135.51927
  23167155.073 6 121744202.06326        37.00026      -854.07526
  25300115.496 5                        31.00025     -1047.55325
  22434978.044 7 117896618.54827        42.00027      5132.03427
  23722812.925 7 124664242.65227        42.00027      5267.40327
 13  4  5 11 35 15.9980011  0 11G02G04G05G07G08G09G10G13G23G26G28
  22695509.976 7 119265706.32027        45.00027      -444.97027
  24800068.926 7 130325211.65027        42.00027     -1429.68727
  21213998.261 7 111480306.80827        47.00027      3888.52427
  20597591.369 7 108241067.42127        43.00027       659.95627
  20408773.159 7 107248812.16027        45.00027      2779.82227
  23726735.744 7 124684837.66727        43.00027      5842.54027
  20633525.213 8 108429903.48428        48.00028       127.30228
  23169590.513 6 121757025.93026        37.00026      -855.04426
  25303077.304 5                        30.00025     -1048.48325
  22420338.462 7 117819675.42627        43.00027      5128.04427
  23707781.813 7 124585248.52427        43.00027      5265.40027
 13  4  5 11 35 30.9980011  0 11G02G04G05G07G08G09G10G13G23G26G28
  22696786.806 7 119272420.16127        44.00027      -450.74527
  24804149.328 6 130346651.72526        41.00026     -1429.15426
  21202909.709 7 111422037.20727        47.00027      3881.69327
  20595717.667 7 108231222.97127        43.00027       653.79727
  20400850.199 7 107207175.43427        45.00027      2772.12127
  23710063.019 7 124597218.04327        42.00027      5839.96827
  20633174.548 7 108428061.74827        47.00027       119.72927
  23172038.708 6 121769883.49726        38.00026      -857.50326
  25306095.109 4                        28.00024     -1050.29324
  22405705.808 7 117742782.34827        42.00027      5125.60327
  23692754.610 7 124506287.29327        42.00027      5263.61427
 13  4  5 11 35 45.9980011  0 11G02G04G05G07G08G09G10G13G23G26G28
  22698082.012 7 119279225.42027        44.00027      -456.77627
  24808226.083 6 130368083.84726        40.00026     -1427.41226
  21191843.877 7 111363884.37327        47.00027      3873.21627
  20593866.213 7 108221493.10727        42.00027       645.22327
  20392951.110 7 107165667.79227        45.00027      2763.21127
  23693397.363 7 124509642.08427        42.00027      5837.92227
  20632847.527 7 108426343.32827        47.00027       111.01427
  23174487.583 5 121782776.37325        35.00025      -860.47325
  25309073.740 4                        26.00024     -1047.97524
  22391084.339 7 117665941.13327        42.00027      5121.25327
  23677734.159 7 124427360.97927        42.00027      5261.03527
 13  4  5 11 36  0.9980011  0 11G02G04G05G07G08G09G10G13G23G26G28
  22699392.347 7 119286116.06527        43.00027      -462.00427
  24812302.664 6 130389502.14726        41.00026     -1426.36826
  21180799.282 7 111305842.99727        47.00027      3865.87027
  20592034.443 6 108211872.13926        41.00026       637.70926
  20385076.120 7 107124283.66627        45.00027      2754.88027
  23676740.047 7 124422104.52527        42.00027      5834.67427
  20632543.175 7 108424742.59127        47.00027       102.96927
  23176955.078 6 121795698.79126        38.00026      -862.71026
  25312081.702 4                        24.00024     -1051.98324
  22376470.094 7 117589146.30327        43.00027      5118.76527
  23662722.539 7 124348464.36727        42.00027      5259.29527
 13  4  5 11 36 15.9980011  0 11G02G04G05G07G08G09G10G13G23G26G28
  22700721.056 7 119293102.08927        42.00027      -468.94127
  24816378.616 6 130410916.55426        40.00026     -1427.18026
  21169778.123 7 111247923.72627        47.00027      3857.68927
  20590225.830 6 108202370.19826        41.00026       629.80226
  20377226.555 7 107083033.41227        45.00027      2746.22627
  23660091.142 6 124334615.98526        41.00026      5831.73226
  20632263.113 7 108423269.84827        46.00027        94.69827
  23179415.069 5 121808661.07315        32.00025      -865.51525
  25315100.834 4                        29.00024     -1052.07224
  22361866.389 7 117512408.37027        42.00027      5114.29927
  23647715.665 7 124269608.10327        42.00027      5256.63727
 13  4  5 11 36 30.9980011  0 11G02G04G05G07G08G09G10G13G23G26G28
  22702067.582 7 119300174.90927        43.00027      -475.40327
  24820450.938 6 130432318.67126        39.00026     -1427.45326
  21158778.794 7 111190118.59427        47.00027      3848.37227
  20588437.528 6 108192978.98026        40.00026       621.95626
  20369402.118 7 107041908.75427        46.00027      2735.91827
  23643450.508 7 124247168.36127        42.00027      5827.30127
  20632004.951 7 108421916.55427        46.00027        85.12127
  23181891.864 6 121821655.12336        37.00026      -868.91326
  25318079.026 4                        25.00024     -1056.28724
  22347274.446 7 117435719.27527        44.00027      5109.96327
  23632716.119 6 124190784.34026        41.00026      5252.53626
 13  4  5 11 36 45.9980011  0 11G02G04G05G07G08G09G10G13G23G26G28
  22703430.947 7 119307343.97727        43.00027      -482.74227
  24824524.883 6 130453717.86326        41.00026     -1427.47426
  21147802.621 8 111132437.55728        48.00028      3840.12728
  20586673.902 6 108183708.07826        41.00026       613.46926
  20361602.112 7 107000919.51127        46.00027      2727.03127
  23626820.345 7 124159771.71327        43.00027      5824.50527
  20631771.970 7 108420692.36227        46.00027        76.55327
  23184368.258 5 121834690.34225        34.00025      -872.96525
  25321123.042 5                        30.00025     -1055.18425
  22332691.053 7 117359088.97127        43.00027      5105.71527
  23617725.177 7 124112003.21727        42.00027      5249.31627
 13  4  5 11 37  0.9980011  0 11G02G04G05G07G08G09G10G13G23G26G28
  22704812.497 7 119314598.91127        43.00027      -486.22227
  24828593.385 6 130475103.80726        41.00026     -1424.90626
  21136848.175 8 111074870.85828        48.00028      3834.01128
  20584931.478 6 108174547.19026        41.00026       607.97026
  20353826.309 7 106960055.79327        46.00027      2719.64227
  23610195.609 7 124072416.21727        42.00027      5823.27327
  20631560.558 7 108419587.10727        45.00027        69.78027
  23186861.685 6 121847756.92136        38.00026      -872.29726
  25324106.558 4                        28.00024     -1056.41324
  22318119.178 7 117282507.54927        44.00027      5104.81127
  23602739.226 7 124033255.10727        42.00027      5249.18827
 13  4  5 11 37 15.9980011  0 11G02G04G05G07G08G09G10G13G23G26G28
  22706208.862 7 119321937.36927        43.00027      -491.46327
  24832660.316 6 130496474.09126        39.00026     -1424.64326
  21125914.250 8 111017416.74628        48.00028      3826.93128
  20583207.882 6 108165493.98726        41.00026       599.63726
  20346073.733 7 106919315.46427        47.00027      2711.80127
  23593579.126 7 123985100.08027        42.00027      5819.35427
  20631372.285 7 108418598.63627        45.00027        62.27527
  23189352.737 6 121860852.42426        37.00026      -873.90926
  25327151.446 4                        29.00024     -1057.08424
  22303555.051 7 117205973.15727        44.00027      5101.19027
  23587760.255 7 123954538.34427        43.00027      5246.54127
 13  4  5 11 37 30.9980011  0 11G02G04G05G07G08G09G10G13G23G26G28
  22707621.524 7 119329361.57127        43.00027      -497.57527
  24836722.273 6 130517831.24326        39.00026     -1424.27926
  21115003.707 7 110960078.15027        46.00027      3818.95827
  20581506.466 6 108156550.98426        40.00026       593.72026
  20338344.924 7 106878701.11827        46.00027      2703.69427
  23576971.578 6 123897826.17626        41.00026      5816.04026
  20631206.871 7 108417729.44527        44.00027        54.32427
  23191845.448 5 121873979.86025        33.00025      -875.58125
  25330154.157 5                        31.00025     -1057.33625
  22289001.708 7 117129488.52927        44.00027      5098.24627
  23572786.449 6 123875855.91026        41.00026      5244.30826
 13  4  5 11 37 45.9980011  0 11G02G04G05G07G08G09G10G13G23G26G28
  22709048.427 7 119336861.17827        43.00027      -502.63427
  24840782.905 6 130539164.86826        40.00026     -1421.56526
  21104112.029 7 110902845.36627        46.00027      3812.07127
  20579822.796 6 108147707.92226        40.00026       585.09926
  20330639.882 7 106838202.75227        47.00027      2695.73227
  23560370.644 7 123810584.76527        42.00027      5814.33727
  20631063.166 7 108416969.40327        45.00027        46.96527
  23194352.154 5 121887128.70725        35.00025      -877.78725
  25333185.295 5 133126786.32735        32.00025     -1058.73725
  22274452.901 7 117053043.78727        43.00027      5093.69827
  23557819.990 6 123797198.22626        41.00026      5242.91526
 13  4  5 11 38  0.9980011  0 11G02G04G05G07G08G09G10G13G23G26G28
  22710492.133 7 119344445.00927        44.00027      -508.68627
  24844839.225 6 130560483.66026        39.00026     -1421.40526
  21093242.216 7 110845727.87427        45.00027      3803.85627
  20578160.293 6 108138973.74926        40.00026       578.66126
  20322957.298 7 106797829.55427        47.00027      2686.61927
  23543776.673 7 123723385.14227        42.00027      5812.24127
  20630941.465 7 108416327.45127        45.00027        38.80227
  23196857.846 5 121900308.44625        35.00025      -881.34925
  25336206.696 5 133142664.44935        35.00025     -1057.58925
  22259916.258 7 116976648.25327        43.00027      5091.01527
  23542856.201 6 123718574.85426        40.00026      5241.21326
 13  4  5 11 38 15.9980011  0 11G02G04G05G07G08G09G10G13G23G26G28
  22711950.987 7 119352106.97127        44.00027      -513.51727
  24848889.998 6 130581782.04726        39.00026     -1417.64526
  21082393.273 7 110788720.34027        45.00027      3797.01227
  20576517.231 6 108130342.74426        40.00026       571.52026
  20315297.941 8 106757575.96028        48.00028      2680.42428
  23527191.218 7 123636222.06227        43.00027      5810.52927
  20630841.019 7 108415797.94227        46.00027        31.88827
  23199370.939 6 121913513.26926        36.00026      -882.23926
  25339228.828 5 133158548.87415        32.00025     -1060.05225
  22245385.426 7 116900296.51527        42.00027      5089.39727
  23527898.938 6 123639980.43326        40.00026      5239.54726
 13  4  5 11 38 30.9980011  0 11G02G04G05G07G08G09G10G13G23G26G28
  22713422.562 7 119359837.66827        44.00027      -517.72727
  24852939.722 6 130603050.07926        40.00026     -1417.57526
  21071563.072 7 110731813.68327        44.00027      3790.29027
  20574894.603 7 108121805.41527        42.00027       566.62127
  20307658.355 8 106717432.65028        48.00028      2672.32128
  23510608.536 7 123549086.31427        43.00027      5807.65527
  20630760.501 7 108415371.40327        47.00027        25.35727
  23201885.795 6 121926733.96326        36.00026      -881.62526
  25342252.428 5 133174431.32515        35.00025     -1059.36925
  22230865.256 7 116823979.40927        43.00027      5086.33827
  23512947.207 6 123561406.06926        41.00026      5236.49526
 13  4  5 11 38 45.9980011  0 11G02G04G05G07G08G09G10G13G23G26G28
  22714911.499 7 119367659.15927        44.00027      -524.28427
  24856985.451 6 130624310.02326        39.00026     -1416.43526
  21060757.562 7 110675030.55727        44.00027      3781.40427
  20573293.629 7 108113383.94527        42.00027       557.66627
  20300044.909 7 106677422.04427        47.00027      2663.40427
  23494037.337 7 123462000.70927        43.00027      5804.43827
  20630703.418 7 108415070.25727        47.00027        16.08927
  23204412.062 6 121939992.45026        37.00026      -885.21926
  25345276.917 5 133190334.17925        32.00025     -1058.66225
  22216349.361 6 116747719.58026        40.00026      5082.71726
  23498002.839 6 123482874.61026        40.00026      5233.52726
 13  4  5 11 39  0.9980011  0 11G02G04G05G07G08G09G10G13G23G26G28
  22716413.316 7 119375549.29127        45.00027      -528.73027
  24861022.944 6 130645540.07426        38.00026     -1414.78926
  21049969.050 7 110618349.62927        44.00027      3774.57727
  20571709.932 7 108105056.46527        42.00027       551.80227
  20292451.304 7 106637522.53227        47.00027      2655.81827
  23477471.671 7 123374943.82627        43.00027      5803.10027
  20630665.775 8 108414872.61428        48.00028         9.32628
  23206934.892 5 121953267.34625        35.00025      -886.44425
  25348303.098 4                        29.00024     -1060.78824
  22201847.287 6 116671495.59926        41.00026      5080.88026
  23483063.760 6 123404364.71126        40.00026      5233.01926
 13  4  5 11 39 15.9980011  0 11G02G04G05G07G08G09G10G13G23G26G28
  22717929.441 7 119383516.39327        45.00027      -534.24127
  24865061.012 6 130666748.58626        40.00026     -1413.13126
  21039204.426 7 110561780.06427        43.00027      3766.25527
  20570144.087 7 108096831.58527        42.00027       544.04527
  20284880.751 7 106597742.92727        46.00027      2647.37427
  23460911.413 7 123287924.66927        43.00027      5799.57027
  20630649.369 8 108414787.11128        48.00028         1.29828
  23209470.617 6 121966567.44326        38.00026      -887.99026
  25351331.479 4                        28.00024     -1060.00024
  22187348.440 6 116595316.22626        41.00026      5075.62926
  23468129.357 6 123325885.59926        41.00026      5230.54826
 13  4  5 11 39 30.9980011  0 11G02G04G05G07G08G09G10G13G23G26G28
  22719460.923 7 119391564.50127        45.00027      -539.20527
  24869094.211 6 130687939.38426        39.00026     -1411.68226
  21028463.099 7 110505326.23227        45.00027      3759.09027
  20568598.134 7 108088713.22627        42.00027       537.41727
  20277334.017 7 106558087.42627        45.00027      2639.28927
  23444360.055 7 123200947.70227        42.00027      5796.60527
  20630655.003 8 108414817.84228        48.00028        -6.13528
  23212006.203 6 121979896.77926        38.00026      -890.27326
  25354355.863 5                        31.00025     -1062.39825
  22172859.314 6 116519185.92726        40.00026      5074.03926
  23453200.398 6 123247441.92226        40.00026      5228.47926
 13  4  5 11 39 45.9980011  0 11G02G04G05G07G08G09G10G13G23G26G28
  22721007.621 7 119399692.56427        44.00027      -544.31927
  24873123.816 6 130709111.74426        40.00026     -1410.11626
  21017743.009 7 110448987.81727        46.00027      3752.38927
  20567073.995 7 108080700.72927        43.00027       531.14227
  20269810.614 7 106518555.36427        45.00027      2631.64027
  23427815.642 7 123114012.54927        42.00027      5795.22327
  20630682.414 8 108414963.93128        49.00028       -13.04628
  23214547.129 6 121993254.83626        37.00026      -890.87626
  25357392.009 5 133253993.79315        31.00025     -1060.53125
  22158380.955 6 116443104.22326        40.00026      5071.55326
  23438283.130 6 123169033.41726        40.00026      5225.21526
 13  4  5 11 40  0.9980011  0 11G02G04G05G07G08G09G10G13G23G26G28
  22722570.512 7 119407900.65327        45.00027      -550.29027
  24877149.163 6 130730265.79526        41.00026     -1409.82126
  21007045.341 7 110392765.51527        47.00027      3743.75627
  20565569.626 7 108072794.29127        43.00027       523.72327
  20262311.520 7 106479147.36327        45.00027      2623.10227
  23411278.872 7 123027119.94927        42.00027      5791.03027
  20630731.813 8 108415225.93328        49.00028       -21.36228
  23217095.052 6 122006641.91726        39.00026      -892.49226
  25360419.604 4                        27.00024     -1061.41924
  22143911.127 6 116367071.71526        39.00026      5065.94626
  23423367.102 6 123090660.82626        40.00026      5223.38626
 13  4  5 11 40 15.9980011  0 11G02G04G05G07G08G09G10G13G23G26G28
  22724148.045 7 119416191.99127        44.00027      -556.35127
  24881172.939 6 130751404.65926        41.00026     -1409.59926
  20996369.505 7 110336663.16427        47.00027      3736.10327
  20564086.460 7 108064997.23927        43.00027       515.86427
  20254835.669 7 106439866.67227        44.00027      2614.12527
  23394753.532 7 122940273.55927        42.00027      5787.68927
  20630804.786 8 108415607.13728        48.00028       -29.58128
  23219649.361 6 122020061.38226        39.00026      -896.03326
  25363455.278 3                        23.00023     -1065.03523
  22129455.540 6 116291092.06626        41.00026      5062.78626
  23408463.498 6 123012328.06726        41.00026      5219.73026
 13  4  5 11 40 30.9980011  0 10G02G04G05G07G08G09G10G13G26G28
  22725739.747 7 119424561.81327        44.00027      -560.31827
  24885189.508 6 130772523.71526        40.00026     -1407.75026
  20985716.650 7 110280676.57327        47.00027      3728.84627
  20562622.558 7 108057305.00127        43.00027       509.30527
  20247384.248 7 106400708.97927        44.00027      2607.33027
  23378234.387 6 122853469.30226        41.00026      5784.32526
  20630898.980 8 108416102.92728        48.00028       -36.79828
  23222201.298 5 122033508.83025        35.00025      -896.98925
  22115002.204 6 116215161.16126        39.00026      5059.81326
  23393564.520 6 122934031.21226        41.00026      5220.21026
 13  4  5 11 40 45.9980011  0 10G02G04G05G07G08G09G10G13G26G28
  22727350.610 7 119433022.93227        44.00027      -566.15627
  24889208.312 6 130793635.73626        41.00026     -1406.36026
  20975086.881 7 110224819.00527        47.00027      3719.97027
  20561180.696 7 108049730.28027        43.00027       501.29827
  20239959.456 7 106361687.43227        44.00027      2597.15527
  23361725.956 6 122766720.35626        40.00026      5781.83426
  20631016.434 7 108416726.24327        47.00027       -45.18127
  23224777.856 6 122046997.26626        40.00026      -899.35026
  22100568.849 6 116139292.05526        41.00026      5057.10326
  23378672.956 6 122855783.56326        41.00026      5215.18826
 13  4  5 11 41  0.9980011  0 10G02G04G05G07G08G09G10G13G26G28
  22728975.885 7 119441562.17627        44.00027      -572.74327
  24893221.129 6 130814727.51426        41.00026     -1406.02926
  20964479.868 7 110169078.11127        47.00027      3711.47627
  20559761.101 7 108042260.21427        45.00027       494.61627
  20232557.768 7 106322789.29127        45.00027      2588.32127
  23345226.059 6 122680014.20526        41.00026      5778.88226
  20631156.399 7 108417464.27827        47.00027       -53.31127
  23227344.521 6 122060513.85526        37.00026      -901.68626
  22086140.396 7 116063472.18427        42.00027      5052.91827
  23363791.618 7 122777572.81627        42.00027      5212.39027
 13  4  5 11 41 15.9980011  0 10G02G04G05G07G08G09G10G13G26G28
  22730615.715 7 119450186.09127        43.00027      -577.55227
  24897231.294 6 130835805.94026        39.00026     -1404.43826
  20953894.807 7 110113460.92027        46.00027      3703.29127
  20558359.671 7 108034901.41727        44.00027       487.33627
  20225180.511 7 106284021.28027        44.00027      2579.96927
  23328739.667 6 122593358.03726        41.00026      5775.04726
  20631319.276 7 108418323.70727        45.00027       -61.11627
  23229924.237 6 122074065.51726        38.00026      -905.56826
  22071724.368 6 115987708.61326        41.00026      5047.34726
  23348916.685 7 122699406.19127        42.00027      5209.71527
 13  4  5 11 41 30.9980011  0 10G02G04G05G07G08G09G10G13G26G28
  22732269.837 7 119458886.89227        42.00027      -581.97127
  24901239.941 6 130856863.10926        39.00026     -1402.95626
  20943334.613 7 110057960.54627        45.00027      3696.81327
  20556979.880 7 108027646.58127        44.00027       481.04927
  20217826.987 7 106245376.25027        43.00027      2572.91327
  23312255.737 6 122506744.84626        40.00026      5773.18826
  20631503.094 7 108419297.00027        43.00027       -68.55727
  23232507.219 6 122087644.84226        38.00026      -905.04926
  22057315.234 6 115911994.30526        41.00026      5045.33126
  23334049.361 6 122621276.69226        41.00026      5207.08426
 13  4  5 11 41 45.9980011  0 10G02G04G05G07G08G09G10G13G26G28
  22733942.246 7 119467662.92227        44.00027      -588.22227
  24905241.521 6 130877897.55526        39.00026     -1402.65726
  20932793.946 7 110002575.73427        46.00027      3687.84627
  20555617.870 7 108020493.91627        44.00027       472.95927
  20210496.164 7 106206852.65927        45.00027      2563.71027
  23295784.022 7 122420173.44727        43.00027      5768.89727
  20631709.719 7 108420382.71527        45.00027       -76.95827
  23235098.330 6 122101250.55726        41.00026      -908.85926
  22042917.302 7 115836327.96427        43.00027      5040.83627
  23319190.168 7 122543183.46727        43.00027      5204.07327
 13  4  5 11 42  0.9980011  0 10G02G04G05G07G08G09G10G13G26G28
  22735624.219 7 119476517.98627        42.00027      -592.80827
  24909240.344 6 130898913.10226        40.00026     -1399.92226
  20922277.813 7 109947311.01027        45.00027      3680.24827
  20554277.045 7 108013447.55727        44.00027       464.79327
  20203189.074 7 106168454.75927        44.00027      2555.56227
  23279316.512 7 122333648.30327        42.00027      5766.54327
  20631939.309 7 108421584.94527        45.00027       -84.32827
  23237691.100 6 122114886.58626        39.00026      -911.07126
  22028531.376 7 115760713.91527        44.00027      5038.50027
  23304338.600 7 122465131.10327        43.00027      5201.57427
 13  4  5 11 42 15.9980011  0 10G02G04G05G07G08G09G10G13G26G28
  22737328.300 7 119485459.55527        43.00027      -598.41027
  24913234.768 6 130919917.41226        37.00026     -1399.93426
  20911785.465 7 109892174.46727        44.00027      3672.05327
  20552957.980 7 108006515.10727        43.00027       458.30227
  20195908.160 7 106130190.42227        44.00027      2546.60227
  23262861.566 6 122247177.46026        41.00026      5762.39626
  20632192.473 7 108422911.26227        45.00027       -92.79027
  23240293.434 6 122128560.84326        37.00026      -911.98226
  22014152.430 7 115685160.19927        43.00027      5034.62227
  23289493.874 7 122387127.82527        42.00027      5198.66527
 13  4  5 11 42 30.9980011  0 10G02G04G05G07G08G09G10G13G26G28
  22739045.609 7 119494487.11627        43.00027      -604.66327
  24917232.579 6 130940909.97826        40.00026     -1399.76726
  20901316.937 7 109837166.22727        44.00027      3662.72127
  20551660.065 7 107999696.18027        45.00027       451.35027
  20188650.558 7 106092059.49427        45.00027      2537.87127
  23246418.870 7 122160760.96427        42.00027      5759.17927
  20632470.086 7 108424361.49227        46.00027      -100.37427
  23242906.044 6 122142273.12526        39.00026      -915.88526
  21999788.178 7 115609666.85627        45.00027      5031.19427
  23274660.262 7 122309173.69327        43.00027      5195.76227
 13  4  5 11 42 45.9980011  0 10G02G04G05G07G08G09G10G13G26G28
  22740775.221 7 119503579.09827        43.00027      -608.17027
  24921219.536 6 130961868.89826        39.00026     -1396.42526
  20890869.070 7 109782265.09827        44.00027      3656.02227
  20550382.044 7 107992969.07927        45.00027       444.66827
  20181417.109 7 106054040.49127        44.00027      2530.44027
  23229977.850 7 122074377.67827        42.00027      5758.05727
  20632765.725 7 108425913.86927        46.00027      -107.35127
  23245516.299 6 122156001.91526        39.00026      -916.88326
  21985427.398 7 115534212.41327        43.00027      5028.45027
  23259829.793 7 122231247.62627        42.00027      5193.63427
 13  4  5 11 43  0.9980011  0 10G02G04G05G07G08G09G10G13G26G28
  22742521.810 7 119512746.87527        43.00027      -615.49127
  24925204.415 6 130982806.11026        38.00026     -1395.57926
  20880442.579 7 109727483.46827        42.00027      3646.76427
  20549121.576 7 107986345.74527        46.00027       436.78327
  20174205.488 7 106016145.43327        44.00027      2520.45127
  23213550.754 7 121988039.94127        42.00027      5753.26827
  20633084.171 7 108427580.39227        47.00027      -115.91127
  23248132.942 6 122169759.14026        37.00026      -918.09526
  21971080.089 7 115458809.31427        44.00027      5023.66727
  23245007.367 7 122153362.16727        42.00027      5189.37827
 13  4  5 11 43 15.9980011  0 10G02G04G05G07G08G09G10G13G26G28
  22744282.204 7 119521998.98227        44.00027      -618.04527
  24929185.213 6 131003730.03526        38.00026     -1392.48826
  20870042.177 7 109672830.32827        43.00027      3640.53327
  20547882.033 7 107979834.73927        46.00027       431.26027
  20167018.980 7 105978383.06227        44.00027      2514.64727
  23197130.239 7 121901756.75927        43.00027      5751.91427
  20633424.220 8 108429369.71528        48.00028      -122.84028
  23250760.211 6 122183553.62426        40.00026      -920.19926
  21956742.902 7 115383466.40027        44.00027      5022.61327
  23230195.465 7 122075526.52127        43.00027      5189.06927
 13  4  5 11 43 30.9980011  0 10G02G04G05G07G08G09G10G13G26G28
  22746054.673 7 119531318.45627        44.00027      -624.52527
  24933162.065 6 131024623.78526        39.00026     -1391.11326
  20859664.442 7 109618289.30127        43.00027      3632.51227
  20546661.998 7 107973419.26627        46.00027       424.25227
  20159855.680 7 105940736.81927        44.00027      2505.75827
  23180718.570 7 121815511.70227        43.00027      5749.10827
  20633785.001 8 108431265.09628        48.00028      -130.12828
  23253387.550 6 122197368.53826        38.00026      -920.74226
  21942413.881 7 115308167.23427        44.00027      5017.56227
  23215387.139 6 121997724.37726        41.00026      5185.75426
 13  4  5 11 43 45.9980011  0 10G02G04G05G07G08G09G10G13G26G28
  22747841.365 7 119540710.23927        44.00027      -627.28527
  24937133.927 6 131045492.42326        37.00026     -1391.53726
  20849307.735 7 109563865.95127        43.00027      3624.73527
  20545458.559 7 107967104.36027        46.00027       417.86327
  20152713.740 7 105903212.03827        44.00027      2499.71027
  23164314.788 7 121729310.24327        43.00027      5745.70627
  20634166.757 8 108433271.59928        48.00028      -136.69128
  23256017.891 6 122211209.24326        36.00026      -921.91926
  21928094.284 7 115232917.26927        44.00027      5015.84227
  23200588.743 6 121919961.45426        41.00026      5183.03526
 13  4  5 11 44  0.9980011  0 10G02G04G05G07G08G09G10G13G26G28
  22749642.068 7 119550170.10127        43.00027      -634.32027
  24941098.495 6 131066331.87626        37.00026     -1388.51426
  20838972.666 7 109509556.74627        44.00027      3615.94727
  20544275.205 7 107960886.13727        45.00027       410.46627
  20145594.780 7 105865804.83327        43.00027      2488.21727
  23147918.143 7 121643148.91427        43.00027      5742.31027
  20634568.196 7 108435385.28027        47.00027      -145.61727
  23258659.766 6 122225072.10926        38.00026      -924.07226
  21913782.032 7 115157712.86527        43.00027      5011.03527
  23185795.756 6 121842234.31326        40.00026      5180.21726
 13  4  5 11 44 15.9980011  0 10G02G04G05G07G08G09G10G13G26G28
  22751457.953 7 119559711.09127        44.00027      -638.46127
  24945060.864 6 131087155.14126        38.00026     -1388.30926
  20828664.226 7 109455375.34727        44.00027      3608.40327
  20543112.459 7 107954777.80227        45.00027       403.95327
  20138500.984 7 105828528.59727        43.00027      2481.23927
  23131533.469 7 121557041.30227        43.00027      5739.52227
  20634992.844 7 108437619.46227        47.00027      -152.30927
  23261304.258 6 122238970.07926        38.00026      -927.15026
  21899483.131 7 115082567.47727        43.00027      5008.50227
  23171015.315 6 121764556.51026        40.00026      5177.49326
 13  4  5 11 44 30.9980011  0 10G02G04G05G07G08G09G10G13G26G28
  22753284.431 7 119569315.88527        43.00027      -643.02527
  24949016.132 6 131107944.90826        36.00026     -1384.65626
  20818373.830 7 109401305.07027        44.00027      3601.17327
  20541967.985 7 107948761.83327        45.00027       398.30627
  20131430.712 7 105791366.27527        44.00027      2473.96427
  23115153.211 7 121470970.54727        43.00027      5737.14227
  20635438.451 8 108439956.92228        48.00028      -158.62428
  23263952.224 6 122252886.31626        38.00026      -925.64026
  21885190.075 7 115007464.37827        42.00027      5006.48327
  23156236.620 6 121686911.59426        40.00026      5175.11026
 13  4  5 11 44 45.9980011  0 10G02G04G05G07G08G09G10G13G26G28
  22755127.608 7 119578994.23327        43.00027      -648.15727
  24952968.327 5 131128711.12225        35.00025     -1384.40325
  20808108.526 7 109347356.16527        45.00027      3592.45227
  20540842.286 7 107942848.17727        44.00027       390.64927
  20124381.396 7 105754327.88227        42.00027      2463.90927
  23098784.940 7 121384947.06027        42.00027      5732.93627
  20635904.996 7 108442407.54227        47.00027      -167.68627
  23266607.308 6 122266830.59026        38.00026      -930.64226
  21870907.262 6 114932413.74126        41.00026      5001.94926
  23141471.431 6 121609310.06726        39.00026      5171.50526
 13  4  5 11 45  0.9980011  0 10G02G04G05G07G08G09G10G13G26G28
  22756985.636 7 119588753.49927        43.00027      -652.61927
  24956917.381 5 131149461.18525        35.00025     -1383.78425
  20797868.648 7 109293536.66527        45.00027      3584.30227
  20539738.644 7 107937044.49127        44.00027       383.64427
  20117359.285 7 105717421.23927        43.00027      2455.87827
  23082424.749 7 121298978.92227        42.00027      5729.85027
  20636393.826 7 108444979.18727        47.00027      -175.00527
  23269267.401 6 122280810.93926        38.00026      -932.29626
  21856638.410 6 114857423.62526        41.00026      4997.37626
  23126714.759 6 121531760.09326        39.00026      5169.06326
 13  4  5 11 45 15.9980011  0 10G02G04G05G07G08G09G10G13G26G28
  22758857.065 7 119598588.28127        44.00027      -657.65727
  24960862.213 6 131170189.73226        37.00026     -1380.95326
  20787650.583 7 109239841.71527        47.00027      3575.54927
  20538654.511 7 107931345.37727        46.00027       376.15527
  20110360.715 7 105680641.14627        45.00027      2447.07627
  23066075.987 7 121213061.09827        44.00027      5726.17327
  20636905.376 8 108447666.26128        48.00028      -182.97228
  23271931.978 6 122294822.21826        38.00026      -934.61126
  21842380.708 7 114782488.95727        43.00027      4992.75027
  23111967.037 6 121454256.80326        41.00026      5165.04626
 13  4  5 11 45 30.9980011  0 10G02G04G05G07G08G09G10G13G26G28
  22760740.273 7 119608492.35827        43.00027      -662.33127
  24964802.456 6 131190890.60526        37.00026     -1379.50626
  20777456.162 7 109186265.91827        47.00027      3567.61027
  20537587.707 7 107925745.04527        45.00027       369.75827
  20103384.901 7 105643981.83127        45.00027      2440.37527
  23049735.428 7 121127188.16727        43.00027      5722.97327
  20637438.007 7 108450462.97027        47.00027      -190.23427
  23274605.351 6 122308858.51626        39.00026      -935.48326
  21828128.503 7 114707604.20127        43.00027      4989.83127
  23097225.564 6 121376794.94826        41.00026      5163.00026
 13  4  5 11 45 45.9980011  0 10G02G04G05G07G08G09G10G13G26G28
  22762640.461 7 119618467.49527        43.00027      -666.72627
  24968735.160 5 131211565.61625        35.00025     -1376.48425
  20767285.353 7 109132811.27827        47.00027      3560.93727
  20536541.373 7 107920245.14327        44.00027       364.00227
  20096432.103 7 105607445.37127        44.00027      2433.34127
  23033402.948 7 121041362.41627        42.00027      5720.97227
  20637991.490 7 108453371.24027        46.00027      -196.50827
  23277281.219 6 122322921.54726        37.00026      -938.06426
  21813886.280 6 114632771.52126        41.00026      4988.25026
  23082497.248 6 121299376.86226        41.00026      5161.55226
 13  4  5 11 46  0.9980011  0 10G02G04G05G07G08G09G10G13G26G28
  22764553.403 7 119628514.40627        43.00027      -673.08527
  24972667.776 6 131232215.60226        37.00026     -1376.03126
  20757135.831 7 109079479.37827        47.00027      3550.57027
  20535513.691 7 107914846.60727        43.00027       355.36227
  20089503.874 7 105571032.79527        44.00027      2422.12027
  23017081.025 7 120955585.11727        43.00027      5716.18727
  20638566.244 7 108456391.98727        46.00027      -205.83727
  23279964.783 6 122337012.58726        37.00026      -940.32726
  21799657.109 6 114557992.20126        41.00026      4983.60726
  23067773.083 7 121222004.03427        42.00027      5156.13727
 13  4  5 11 46 15.9980011  0 10G02G04G05G07G08G09G10G13G26G28
  22766478.005 7 119638628.70127        42.00027      -675.36927
  24976589.575 5 131252836.43725        35.00025     -1371.77225
  20747009.519 7 109026266.45327        46.00027      3543.28227
  20534505.137 7 107909545.43827        42.00027       350.76327
  20082597.616 7 105534740.20927        44.00027      2416.19327
  23000764.582 6 120869852.53026        41.00026      5714.26826
  20639161.574 7 108459521.02927        44.00027      -212.22627
  23282648.521 6 122351127.70026        36.00026      -941.05926
  21785436.943 6 114483262.41926        40.00026      4980.50026
  23053058.012 6 121144672.81626        41.00026      5154.53726
 13  4  5 11 46 30.9980011  0 10G02G04G05G07G08G09G10G13G26G28
  22768415.168 7 119648812.84327        43.00027      -682.31727
  24980506.782 6 131273430.49126        36.00026     -1371.18126
  20736907.794 8 108973175.63428        48.00028      3534.78328
  20533514.939 7 107904344.00527        43.00027       343.24027
  20075714.427 7 105498570.35027        44.00027      2407.25127
  22984460.475 7 120784167.71727        43.00027      5710.20127
  20639776.290 7 108462761.02227        45.00027      -219.71827
  23285339.937 6 122365269.61136        37.00026      -943.92126
  21771227.090 7 114408585.14327        42.00027      4976.60227
  23038351.525 7 121067386.46527        42.00027      5150.04827
 13  4  5 11 46 45.9980011  0 10G02G04G05G07G08G09G10G13G26G28
  22770369.102 7 119659075.15027        43.00027      -687.04627
  24984426.346 6 131294006.09126        37.00026     -1369.23326
  20726829.156 7 108920215.87227        47.00027      3526.46327
  20532545.018 7 107899250.83927        42.00027       336.47027
  20068856.837 7 105462531.76327        45.00027      2398.35127
  22968166.264 7 120698539.47627        42.00027      5707.04427
  20640414.842 7 108466120.52627        44.00027      -227.79027
  23288034.005 5 122379446.77625        34.00025      -947.37325
  21757028.422 7 114333969.23627        42.00027      4972.40527
  23023654.637 7 120990153.97427        42.00027      5146.91827
 13  4  5 11 47  0.9980011  0 10G02G04G05G07G08G09G10G13G26G28
  22772335.687 7 119669413.52827        44.00027      -692.53027
  24988337.010 6 131314561.54126        37.00026     -1369.94126
  20716775.785 8 108867385.64528        48.00028      3516.97128
  20531596.910 7 107894264.11327        43.00027       328.16227
  20062023.503 7 105426622.88327        45.00027      2388.67427
  22951883.237 7 120612966.47927        44.00027      5702.26627
  20641076.638 7 108469597.65727        45.00027      -236.80827
  23290737.915 5 122393657.75725        33.00025      -950.69625
  21742840.066 7 114259413.18427        43.00027      4966.86027
  23008968.427 7 120912974.14527        43.00027      5142.50027
 13  4  5 11 47 15.9980011  0 10G02G04G05G07G08G09G10G13G26G28
  22774315.308 7 119679823.08127        42.00027      -695.82027
  24992243.975 5 131335091.79125        35.00025     -1366.08125
  20706746.497 7 108814680.50927        47.00027      3509.98127
  20530667.474 6 107889378.99026        41.00026       322.55426
  20055213.588 7 105390839.02727        44.00027      2382.70627
  22935608.831 7 120527444.42427        42.00027      5699.48127
  20641759.829 7 108473187.65527        44.00027      -243.40027
  23293450.464 5 122407897.71825        34.00025      -950.65925
  21728664.643 7 114184912.48627        42.00027      4965.29027
  22994290.123 7 120835842.58027        42.00027      5140.46327
 13  4  5 11 47 30.9980011  0 10G02G04G05G07G08G09G10G13G26G28
  22776307.982 7 119690294.90627        43.00027      -700.81327
  24996143.820 6 131355587.91626        38.00026     -1366.26926
  20696739.701 8 108762092.14728        48.00028      3501.47328
  20529756.099 7 107884586.53527        42.00027       315.60827
  20048426.758 7 105355171.41527        46.00027      2373.02427
  22919343.273 7 120441964.87227        44.00027      5696.92727
  20642463.699 7 108476881.76327        47.00027      -250.48527
  23296163.292 5 122422157.87925        35.00025      -951.33125
  21714496.897 7 114110458.70327        44.00027      4961.57827
  22979619.462 7 120758751.11627        44.00027      5137.25727
 13  4  5 11 47 45.9980011  0 10G02G04G05G07G08G09G10G13G26G28
  22778312.540 6 119700838.79326        41.00026      -703.49226
  25000041.572 6 131376059.99626        39.00026     -1362.03626
  20686755.801 7 108709631.32027        47.00027      3494.02627
  20528861.948 6 107879897.03226        40.00026       310.89426
  20041663.540 7 105319630.34927        45.00027      2365.71227
  22903086.771 7 120356538.42627        44.00027      5694.62627
  20643189.189 7 108480690.13727        46.00027      -256.43827
  23298882.069 5 122436448.72125        33.00025      -956.44725
  21700339.482 7 114036062.42327        44.00027      4959.91427
  22964959.394 7 120681710.51727        43.00027      5134.99527
 13  4  5 11 48  0.9980011  0 10G02G04G05G07G08G09G10G13G26G28
  22780331.074 6 119711441.53626        41.00026      -709.70426
  25003930.807 6 131396494.81826        37.00026     -1359.70426
  20676794.638 7 108657285.33927        46.00027      3486.15227
  20527984.042 6 107875297.41526        38.00026       302.43726
  20034921.435 7 105284203.06427        44.00027      2357.67827
  22886836.499 7 120271152.46827        43.00027      5691.00127
  20643934.188 7 108484599.78927        46.00027      -264.48027
  23301608.265 5 122450757.11315        35.00025      -955.10725
  21686192.502 7 113961710.83727        44.00027      4955.03027
  22950306.253 6 120604708.26826        41.00026      5131.40426
 13  4  5 11 48 15.9980011  0 10G02G04G05G07G08G09G10G13G26G28
  22782359.085 6 119722111.50026        41.00026      -712.25526
  25007809.904 5 131416900.95725        35.00025     -1357.12725
  20666856.579 7 108605063.05527        46.00027      3478.40027
  20527126.833 6 107870796.06926        38.00026       297.22426
  20028204.094 7 105248898.08927        45.00027      2350.68927
  22870600.012 7 120185815.82627        45.00027      5688.27527
  20644698.785 7 108488619.10327        46.00027      -271.28627
  23304334.407 5 122465091.72025        33.00025      -955.79525
  21672053.444 7 113887412.75027        44.00027      4951.61527
  22935660.947 7 120527753.23227        42.00027      5129.49827
 13  4  5 11 48 30.9980011  0 10G02G04G05G07G08G09G10G13G26G28
  22784400.322 6 119732840.52426        40.00026      -716.73526
  25011688.652 6 131437270.09626        36.00026     -1355.24926
  20656940.821 7 108552956.97727        44.00027      3470.08927
  20526288.434 6 107866384.94026        38.00026       290.51426
  20021508.512 7 105213707.80427        45.00027      2342.69127
  22854365.533 7 120100520.99927        42.00027      5685.82527
  20645482.978 7 108492740.26227        45.00027      -277.26727
  23307062.747 5                        30.00025      -959.64925
  21657923.688 7 113813160.72427        43.00027      4948.60227
  22921026.635 7 120450838.26927        42.00027      5126.29127
 13  4  5 11 48 45.9980011  0 10G02G04G05G07G08G09G10G13G26G28
  22786455.415 6 119743631.63426        41.00026      -721.50826
  25015561.659 6 131457605.48526        38.00026     -1354.17226
  20647047.347 7 108500970.69627        44.00027      3461.21127
  20525468.376 6 107862067.10226        39.00026       284.00126
  20014833.975 7 105178635.34027        45.00027      2334.62427
  22838144.298 7 120015271.50127        44.00027      5682.17627
  20646287.185 7 108496966.40627        46.00027      -285.35227
  23309804.613 5 122493849.99835        35.00025      -958.87325
  21643803.668 7 113738958.14227        44.00027      4945.17527
  22906396.022 7 120373966.90027        42.00027      5123.02727
 13  4  5 11 49  0.9980011  0 10G02G04G05G07G08G09G10G13G26G28
  22788522.845 7 119754493.62627        43.00027      -726.94427
  25019423.445 6 131477915.83226        38.00026     -1352.87626
  20637178.687 7 108449113.46627        45.00027      3453.03527
  20524665.839 6 107857851.61526        40.00026       278.43726
  20008184.322 7 105143689.90427        47.00027      2326.41327
  22821931.578 7 119930076.72327        44.00027      5677.50527
  20647112.682 7 108501306.45327        46.00027      -292.55827
  23312543.913 5 122508255.71315        31.00025      -960.75225
  21629694.485 7 113664814.32427        45.00027      4941.86727
  22891776.927 7 120297148.85327        42.00027      5119.72827
 13  4  5 11 49 15.9980011  0 10G02G04G05G07G08G09G10G13G26G28
  22790602.230 7 119765416.67427        42.00027      -728.73027
  25023282.665 6 131498191.75226        38.00026     -1351.99026
  20627334.248 7 108397376.14427        45.00027      3444.91927
  20523881.152 6 107853728.90226        40.00026       271.82826
  20001556.918 7 105108862.07927        46.00027      2318.14027
  22805728.631 7 119844927.57127        44.00027      5675.03427
  20647958.178 7 108505750.95127        46.00027      -299.73927
  23315248.190 5                        30.00025      -961.46925
  21615591.340 7 113590719.99927        43.00027      4937.74027
  22877168.668 7 120220374.90527        42.00027      5116.30627
 13  4  5 11 49 30.9980011  0 10G02G04G05G07G08G09G10G13G26G28
  22792694.421 7 119776406.15327        43.00027      -734.87727
  25027138.414 6 131518438.70426        38.00026     -1348.69926
  20617513.228 7 108345765.05227        45.00027      3436.60327
  20523115.312 6 107849704.64026        40.00026       264.34826
  19994953.875 7 105074157.77027        46.00027      2309.37627
  22789534.339 7 119759830.15027        42.00027      5672.48927
  20648825.014 7 108510305.49127        46.00027      -307.73927
  23318021.744 5                        31.00025      -964.57325
  21601506.273 7 113516681.34727        44.00027      4933.85927
  22862569.517 7 120143651.39427        42.00027      5112.73427
 13  4  5 11 49 45.9980011  0 10G02G04G05G07G08G09G10G13G26G28
  22794797.259 7 119787457.59727        43.00027      -738.05327
  25030985.247 6 131538652.20226        37.00026     -1344.28326
  20607715.573 7 108294276.08327        46.00027      3429.30027
  20522368.144 6 107845774.29726        41.00026       260.12126
  19988372.784 7 105039572.49227        47.00027      2302.28927
  22773348.843 7 119674780.38127        43.00027      5670.10627
  20649711.588 7 108514965.62127        46.00027      -313.50427
  23320794.565 4 122551601.97614        29.00024      -966.30024
  21587424.837 7 113442694.13927        43.00027      4932.27527
  22847976.772 7 120066974.36227        43.00027      5110.67727
 13  4  5 11 50  0.9980011  0 10G02G04G05G07G08G09G10G13G26G28
  22796913.427 7 119798575.68727        43.00027      -742.80627
  25034826.022 6 131558836.93626        39.00026     -1344.37226
  20597941.389 7 108242914.53927        45.00027      3420.44627
  20521637.815 6 107841942.70926        40.00026       252.08726
  19981814.168 7 105005111.23127        46.00027      2292.78127
  22757175.037 7 119589783.62627        43.00027      5664.66427
  20650619.258 7 108519736.28427        46.00027      -321.62927
  23323546.394 5 122566110.82615        33.00025      -967.42425
  21573355.806 7 113368763.59527        43.00027      4926.70827
  22833397.061 7 119990349.34627        43.00027      5105.31627
 13  4  5 11 50 15.9980011  0 10G02G04G05G07G08G09G10G13G26G28
  22799041.078 7 119809756.80427        43.00027      -747.04427
  25038660.813 6 131578989.41226        38.00026     -1342.41326
  20588190.204 7 108191677.44827        45.00027      3412.27027
  20520927.467 6 107838206.47826        41.00026       246.80226
  19975279.147 7 104970770.94027        46.00027      2285.92627
  22741010.480 7 119504836.87627        43.00027      5662.11527
  20651547.519 7 108524614.14127        46.00027      -328.71927
  23326317.401 5 122580640.89915        33.00025      -969.79325
  21559295.781 7 113294886.79227        42.00027      4924.11027
  22818823.424 7 119913773.40527        43.00027      5104.08527
 13  4  5 11 50 30.9980011  0 10G02G04G05G07G08G09G10G13G26G28
  22801179.514 7 119820992.13027        43.00027      -750.54027
  25042488.868 6 131599100.82826        39.00026     -1339.74126
  20578462.298 7 108140556.59527        45.00027      3403.72627
  20520231.829 6 107834556.75026        40.00026       240.66526
  19968765.797 7 104936543.04327        45.00027      2277.88827
  22724853.287 7 119419931.78027        42.00027      5658.90027
  20652495.709 7 108529590.47127        46.00027      -335.42027
  23329096.889 5                        30.00025      -970.89025
  21545249.156 7 113221055.24127        43.00027      4919.84427
  22804260.500 7 119837238.47927        43.00027      5100.61327
 13  4  5 11 50 45.9980011  0 10G02G04G05G07G08G09G10G13G26G28
  22803330.827 7 119832291.12727        44.00027      -755.87827
  25046309.123 6 131619180.92926        38.00026     -1338.89226
  20568757.147 7 108089562.10627        45.00027      3395.42227
  20519556.363 6 107831003.35426        41.00026       233.87126
  19962275.273 7 104902437.48227        45.00027      2268.89927
  22708706.216 7 119335078.54727        43.00027      5655.05227
  20653463.129 7 108534675.13627        46.00027      -342.89027
  23331863.742 5 122609770.78415        34.00025      -974.14025
  21531205.848 6 113147279.14326        41.00026      4916.20926
  22789705.481 7 119760754.89727        43.00027      5096.28327
 13  4  5 11 51  0.9980011  0 10G02G04G05G07G08G09G10G13G26G28
  22805493.431 7 119843655.61427        43.00027      -760.62627
  25050124.718 6 131639231.35726        39.00026     -1337.67126
  20559078.031 7 108038696.18827        46.00027      3385.98127
  20518900.232 7 107827548.08027        42.00027       225.88927
  19955809.266 7 104868456.17027        46.00027      2259.95727
  22692568.392 7 119250279.46127        42.00027      5650.55227
  20654451.593 7 108539869.85327        46.00027      -351.45527
  23334638.639 5 122624371.07325        32.00025      -976.91225
  21517182.136 7 113073560.68527        43.00027      4911.73227
  22775162.556 7 119684324.89627        44.00027      5092.70327
 13  4  5 11 51 15.9980011  0 10G02G04G05G07G08G09G10G13G26G28
  22807667.552 7 119855082.01627        43.00027      -763.56727
  25053934.714 6 131659248.85526        40.00026     -1331.05026
  20549422.823 7 107987956.05627        46.00027      3379.00427
  20518259.912 7 107824187.53427        42.00027       221.22227
  19949364.461 7 104834595.83327        45.00027      2253.36527
  22676441.441 7 119165531.60927        43.00027      5649.45127
  20655461.296 7 108545171.32427        47.00027      -356.32827
  23337421.322 5 122638996.17225        34.00025      -973.04725
  21503162.246 7 112999896.79327        43.00027      4909.37127
  22760626.000 7 119607945.82027        43.00027      5090.34027
 13  4  5 11 51 30.9980011  0 10G02G04G05G07G08G09G10G13G26G28
  22809850.556 7 119866555.75227        42.00027      -766.59427
  25057734.481 6 131679218.76026        38.00026     -1330.74126
  20539788.938 7 107937327.70527        46.00027      3370.62127
  20517635.593 6 107820907.47726        41.00026       214.28326
  19942941.295 7 104800842.34427        44.00027      2245.69527
  22660321.679 7 119080821.02227        42.00027      5645.83227
  20656487.401 7 108550565.31527        45.00027      -363.17027
  23340209.447 5 122653631.75925        34.00025      -975.84925
  21489154.501 7 112926273.58727        42.00027      4906.19827
  22746098.536 7 119531603.91527        42.00027      5087.94627
 13  4  5 11 51 45.9980011  0 10G02G04G05G07G08G09G10G13G26G28
  22812045.652 6 119878085.43726        41.00026      -769.97526
  25061528.055 6 131699150.12826        38.00026     -1327.35926
  20530177.809 7 107886820.29327        46.00027      3362.58727
  20517029.109 7 107817716.46927        42.00027       209.26727
  19936539.767 7 104767204.48227        44.00027      2238.31327
  22644209.770 7 118996156.78227        42.00027      5642.63227
  20657532.597 7 108556060.42327        45.00027      -370.57527
  23342997.608 5 122668286.78525        34.00025      -976.90125
  21475150.264 6 112852700.06726        41.00026      4903.00926
  22731579.308 7 119455308.50727        42.00027      5084.81927
 13  4  5 11 52  0.9980011  0 10G02G04G05G07G08G09G10G13G26G28
  22814249.108 6 119889675.67026        41.00026      -773.31826
  25065313.863 6 131719047.31126        38.00026     -1325.13826
  20520590.936 7 107836438.93427        46.00027      3355.35527
  20516440.353 7 107814619.21427        42.00027       203.38627
  19930162.024 7 104733687.18827        44.00027      2230.79927
  22628109.657 7 118911544.11827        43.00027      5639.44527
  20658598.645 7 108561661.31527        46.00027      -376.83027
  23345788.211 5 122682966.08115        34.00025      -977.18825
  21461162.797 7 112779181.39927        42.00027      4900.36327
  22717071.981 7 119379064.74627        43.00027      5082.27827
 13  4  5 11 52 15.9980011  0 10G02G04G05G07G08G09G10G13G26G28
  22816467.988 7 119901328.03827        42.00027      -779.42827
  25069092.744 6 131738911.93326        40.00026     -1323.61126
  20511028.946 8 107786185.97228        48.00028      3346.46928
  20515869.048 7 107811617.71227        43.00027       197.25127
  19923808.397 7 104700292.46227        45.00027      2222.66427
  22612018.234 7 118826985.36527        43.00027      5635.60627
  20659684.273 7 108567369.95727        46.00027      -384.21327
  23348585.009 5 122697671.72415        33.00025      -979.93125
  21447181.454 7 112705719.73827        43.00027      4895.28027
  22702572.157 7 119302875.13227        42.00027      5077.79727
 13  4  5 11 52 30.9980011  0 10G02G04G05G07G08G09G10G13G26G28
  22818694.041 7 119913037.27627        42.00027      -781.95227
  25072864.173 6 131758739.09326        38.00026     -1321.13326
  20501490.514 7 107736056.74627        47.00027      3337.91027
  20515314.740 7 107808706.68127        43.00027       191.01027
  19917475.709 7 104667015.37427        45.00027      2214.42927
  22595936.722 7 118742475.83027        43.00027      5631.26627
  20660789.445 7 108573181.40927        46.00027      -391.19227
  23351390.794 5 122712398.72925        32.00025      -982.75325
  21433211.332 6 112632310.34726        41.00026      4892.49926
  22688084.444 7 119226735.19927        42.00027      5074.66427
 13  4  5 11 52 45.9980011  0 10G02G04G05G07G08G09G10G13G26G28
  22820933.129 6 119924803.31626        41.00026      -788.13826
  25076632.443 6 131778528.67526        39.00026     -1320.16426
  20491975.448 8 107686051.75628        48.00028      3328.79728
  20514778.178 7 107805886.21427        43.00027       184.76427
  19911165.516 7 104633856.19927        45.00027      2207.17627
  22579865.576 7 118658016.02427        43.00027      5627.70727
  20661914.458 7 108579095.68627        46.00027      -398.06127
  23354198.010 5 122727147.26625        34.00025      -984.25125
  21419252.936 7 112558953.65527        42.00027      4887.84527
  22673605.316 7 119150645.46427        43.00027      5070.38527
 13  4  5 11 53  0.9980011  0 10G02G04G05G07G08G09G10G13G26G28
  22823183.316 6 119936628.88026        41.00026      -789.48126
  25080389.790 6 131798283.59726        38.00026     -1316.57126
  20482483.451 8 107636174.49628        48.00028      3321.42228
  20514258.910 7 107803159.32927        43.00027       178.70527
  19904878.932 7 104600818.11027        45.00027      2198.93027
  22563804.779 7 118573609.32027        44.00027      5625.81827
  20663059.975 7 108585115.74727        46.00027      -404.79327
  23357010.286 5 122741920.64615        33.00025      -986.21625
  21405302.881 6 112485653.11026        40.00026      4884.50926
  22659136.432 7 119074609.53627        42.00027      5066.97027
 13  4  5 11 53 15.9980011  0 10G02G04G05G07G08G09G10G13G26G28
  22825446.572 7 119948512.15627        43.00027      -794.97827
  25084143.630 6 131818002.15826        38.00026     -1312.73126
  20473016.269 8 107586423.49428        48.00028      3312.80828
  20513758.487 7 107800524.41327        43.00027       172.17227
  19898615.069 7 104567899.30627        46.00027      2190.81727
  22547752.148 7 118489254.29627        44.00027      5622.16927
  20664225.821 7 108591239.73027        46.00027      -412.64727
  23359826.646 5 122756717.00835        35.00025      -986.19625
  21391364.937 6 112412407.18126        41.00026      4881.01426
  22644676.779 7 118998626.23527        42.00027      5063.66927
 13  4  5 11 53 30.9980011  0 10G02G04G05G07G08G09G10G13G26G28
  22827719.567 7 119960450.80827        43.00027      -796.99127
  25087888.867 6 131837682.04526        39.00026     -1309.90126
  20463572.138 7 107536797.20327        47.00027      3304.72127
  20513274.277 7 107797979.14127        43.00027       166.77027
  19892373.559 7 104535097.97527        46.00027      2182.72127
  22531709.463 7 118404949.51927        43.00027      5618.70827
  20665409.938 7 108597465.72427        46.00027      -418.30627
  23362644.160 5 122771534.94025        33.00025      -983.43325
  21377435.073 6 112339214.28126        39.00026      4878.38826
  22630226.497 6 118922694.06826        41.00026      5060.15226
 13  4  5 11 53 45.9980011  0 10G02G04G05G07G08G09G10G13G26G28
  22830002.246 7 119972448.45527        43.00027      -802.34527
  25091627.629 6 131857327.17926        39.00026     -1309.42226
  20454153.222 7 107487299.77627        47.00027      3295.15127
  20512808.179 7 107795527.27527        44.00027       160.59727
  19886154.787 7 104502418.03327        46.00027      2174.65927
  22515677.528 7 118320699.08427        43.00027      5615.24527
  20666615.606 7 108603797.63327        46.00027      -425.91127
  23365470.621 5 122786377.84835        34.00025      -990.15725
  21363517.667 6 112266078.50426        39.00026      4873.08826
  22615786.405 6 118846817.36626        41.00026      5056.89426
 13  4  5 11 54  0.9980011  0 10G02G04G05G07G08G09G10G13G26G28
  22832296.895 7 119984505.85327        43.00027      -807.15227
  25095358.957 6 131876938.38626        37.00026     -1307.98226
  20444759.383 7 107437932.59127        47.00027      3286.41927
  20512360.055 7 107793169.80227        44.00027       153.47627
  19879958.892 7 104469860.70827        45.00027      2166.21927
  22499655.103 7 118236504.44327        43.00027      5610.46127
  20667841.149 7 108610236.28527        46.00027      -433.41827
  23368298.655 5 122801246.95325        31.00025      -992.18125
  21349613.350 6 112193001.23826        40.00026      4868.94226
  22601359.698 7 118770997.78627        42.00027      5051.94327
 13  4  5 11 54 15.9980011  0 10G02G04G05G07G08G09G10G13G26G28
  22834601.841 7 119996622.38827        43.00027      -809.92027
  25099082.555 5 131896515.01225        35.00025     -1305.31525
  20435390.148 8 107388695.65228        48.00028      3277.18028
  20511929.486 7 107790906.07627        44.00027       147.02527
  19873786.415 7 104437425.56627        45.00027      2157.87227
  22483644.806 7 118152365.51927        44.00027      5607.23427
  20669086.761 7 108616781.18927        46.00027      -440.49727
  23371129.202 5 122816141.91535        31.00025      -993.45525
  21335717.164 6 112119982.34426        39.00026      4865.53526
  22586942.152 7 118695235.00927        42.00027      5047.90427
 13  4  5 11 54 30.9980011  0 10G02G04G05G07G08G09G10G13G26G28
  22836920.328 7 120008802.23827        43.00027      -813.99227
  25102802.716 6 131916061.24826        37.00026     -1302.97526
  20426046.216 7 107339593.65827        47.00027      3268.94827
  20511516.541 7 107788740.51127        43.00027       141.02727
  19867638.317 7 104405116.91427        45.00027      2150.21727
  22467644.700 7 118068286.87527        44.00027      5603.99127
  20670354.185 7 108623436.64627        46.00027      -447.12927
  23373970.411 5 122831067.09135        33.00025      -995.69425
  21321833.124 6 112047026.28526        38.00026      4860.85526
  22572536.821 6 118619534.15826        41.00026      5044.90926
