$GPGGA,062156.00,3428.97785,N,13525.73247,E,1,12,0.76,24.6,M,34.4,M,,*67
$GPGGA,062157.00,3428.97785,N,13525.73246,E,1,12,0.76,24.6,M,34.4,M,,*67
$GPGGA,062158.00,3428.97786,N,13525.73244,E,1,12,0.76,24.6,M,34.4,M,,*69
$GPGGA,062159.00,3428.97787,N,13525.73241,E,1,12,0.76,24.5,M,34.4,M,,*6F
$GPGGA,062200.00,3428.97788,N,13525.73238,E,1,12,0.76,24.5,M,34.4,M,,*61
$GPGGA,062201.00,3428.97788,N,13525.73236,E,1,12,0.76,24.4,M,34.4,M,,*6F
$GPGGA,062202.00,3428.97788,N,13525.73236,E,1,12,0.76,24.3,M,34.4,M,,*6B
$GPGGA,062203.00,3428.97788,N,13525.73233,E,1,12,0.76,24.3,M,34.4,M,,*6F
$GPGGA,062204.00,3428.97788,N,13525.73229,E,1,12,0.76,24.3,M,34.4,M,,*63
$GPGGA,062205.00,3428.97786,N,13525.73227,E,1,12,0.76,24.3,M,34.4,M,,*62
$GPGGA,062206.00,3428.97784,N,13525.73225,E,1,12,0.76,24.3,M,34.4,M,,*61
$GPGGA,062207.00,3428.97783,N,13525.73224,E,1,12,0.76,24.3,M,34.4,M,,*66
$GPGGA,062208.00,3428.97782,N,13525.73222,E,1,12,0.76,24.3,M,34.4,M,,*6E
$GPGGA,062209.00,3428.97779,N,13525.73221,E,1,12,0.76,24.4,M,34.4,M,,*6F
$GPGGA,062210.00,3428.97774,N,13525.73218,E,1,12,0.76,24.4,M,34.4,M,,*60
$GPGGA,062211.00,3428.97771,N,13525.73216,E,1,12,0.76,24.5,M,34.4,M,,*6B
$GPGGA,062212.00,3428.97767,N,13525.73218,E,1,12,0.76,24.5,M,34.4,M,,*61
$GPGGA,062213.00,3428.97765,N,13525.73219,E,1,12,0.76,24.5,M,34.4,M,,*63
$GPGGA,062214.00,3428.97763,N,13525.73222,E,1,12,0.76,24.5,M,34.4,M,,*6A
$GPGGA,062215.00,3428.97763,N,13525.73225,E,1,12,0.76,24.6,M,34.4,M,,*6F
$GPGGA,062216.00,3428.97762,N,13525.73227,E,1,12,0.76,24.6,M,34.4,M,,*6F
$GPGGA,062217.00,3428.97762,N,13525.73229,E,1,12,0.76,24.6,M,34.4,M,,*60
$GPGGA,062218.00,3428.97762,N,13525.73231,E,1,12,0.76,24.7,M,34.4,M,,*67
$GPGGA,062219.00,3428.97761,N,13525.73233,E,1,12,0.76,24.7,M,34.4,M,,*67
$GPGGA,062220.00,3428.97758,N,13525.73235,E,1,12,0.76,24.7,M,34.4,M,,*61
$GPGGA,062221.00,3428.97755,N,13525.73238,E,1,12,0.76,24.8,M,34.4,M,,*6F
$GPGGA,062222.00,3428.97751,N,13525.73242,E,1,12,0.76,24.8,M,34.4,M,,*65
$GPGGA,062223.00,3428.97746,N,13525.73247,E,1,12,0.76,24.9,M,34.4,M,,*66
$GPGGA,062224.00,3428.97742,N,13525.73250,E,1,12,0.76,25.0,M,34.4,M,,*6B
$GPGGA,062225.00,3428.97739,N,13525.73252,E,1,12,0.76,25.1,M,34.4,M,,*65
$GPGGA,062226.00,3428.97736,N,13525.73254,E,1,12,0.76,25.1,M,34.4,M,,*6F
$GPGGA,062227.00,3428.97733,N,13525.73255,E,1,12,0.76,25.2,M,34.4,M,,*69
$GPGGA,062228.00,3428.97730,N,13525.73256,E,1,12,0.76,25.2,M,34.4,M,,*66
$GPGGA,062229.00,3428.97729,N,13525.73257,E,1,12,0.76,25.2,M,34.4,M,,*6E
$GPGGA,062230.00,3428.97727,N,13525.73259,E,1,12,0.76,25.2,M,34.4,M,,*66
$GPGGA,062231.00,3428.97726,N,13525.73260,E,1,12,0.76,25.2,M,34.4,M,,*6C
$GPGGA,062232.00,3428.97727,N,13525.73261,E,1,12,0.76,25.2,M,34.4,M,,*6F
$GPGGA,062233.00,3428.97729,N,13525.73263,E,1,12,0.76,25.2,M,34.4,M,,*62
$GPGGA,062234.00,3428.97731,N,13525.73265,E,1,12,0.76,25.2,M,34.4,M,,*6A
$GPGGA,062235.00,3428.97731,N,13525.73266,E,1,12,0.76,25.3,M,34.4,M,,*69
$GPGGA,062236.00,3428.97731,N,13525.73267,E,1,12,0.76,25.4,M,34.4,M,,*6C
$GPGGA,062237.00,3428.97733,N,13525.73269,E,1,12,0.76,25.4,M,34.4,M,,*61
$GPGGA,062238.00,3428.97732,N,13525.73271,E,1,12,0.76,25.5,M,34.4,M,,*67
$GPGGA,062239.00,3428.97730,N,13525.73272,E,1,12,0.76,25.6,M,34.4,M,,*64
$GPGGA,062240.00,3428.97727,N,13525.73274,E,1,12,0.76,25.7,M,34.4,M,,*6B
$GPGGA,062241.00,3428.97722,N,13525.73275,E,1,12,0.76,25.8,M,34.4,M,,*61
$GPGGA,062242.00,3428.97717,N,13525.73276,E,1,12,0.76,26.0,M,34.4,M,,*6C
$GPGGA,062243.00,3428.97712,N,13525.73279,E,1,12,0.76,26.1,M,34.4,M,,*66
$GPGGA,062244.00,3428.97707,N,13525.73283,E,1,12,0.76,26.3,M,34.4,M,,*62
$GPGGA,062245.00,3428.97702,N,13525.73287,E,1,12,0.76,26.4,M,34.4,M,,*65
$GPGGA,062246.00,3428.97699,N,13525.73292,E,1,12,0.76,26.5,M,34.4,M,,*60
$GPGGA,062247.00,3428.97695,N,13525.73295,E,1,12,0.76,26.5,M,34.4,M,,*6A
$GPGGA,062248.00,3428.97690,N,13525.73296,E,1,12,0.76,26.6,M,34.4,M,,*60
$GPGGA,062249.00,3428.97688,N,13525.73294,E,1,12,0.76,26.7,M,34.4,M,,*6B
$GPGGA,062250.00,3428.97688,N,13525.73295,E,1,12,0.76,26.7,M,34.4,M,,*62
$GPGGA,062251.00,3428.97687,N,13525.73295,E,1,12,0.76,26.8,M,34.4,M,,*63
$GPGGA,062252.00,3428.97684,N,13525.73293,E,1,12,0.76,26.8,M,34.4,M,,*65
$GPGGA,062253.00,3428.97682,N,13525.73290,E,1,12,0.76,26.9,M,34.4,M,,*60
$GPGGA,062254.00,3428.97679,N,13525.73286,E,1,12,0.76,26.9,M,34.4,M,,*64
$GPGGA,062255.00,3428.97676,N,13525.73282,E,1,12,0.76,26.9,M,34.4,M,,*6E
$GPGGA,062256.00,3428.97675,N,13525.73278,E,1,12,0.76,26.9,M,34.4,M,,*6B
$GPGGA,062257.00,3428.97673,N,13525.73274,E,1,12,0.76,26.9,M,34.4,M,,*60
$GPGGA,062258.00,3428.97671,N,13525.73270,E,1,12,0.76,27.0,M,34.4,M,,*61
$GPGGA,062259.00,3428.97670,N,13525.73266,E,1,12,0.76,27.0,M,34.4,M,,*66
$GPGGA,062300.00,3428.97671,N,13525.73262,E,1,12,0.76,27.0,M,34.4,M,,*6E
$GPGGA,062301.00,3428.97672,N,13525.73257,E,1,12,0.76,27.0,M,34.4,M,,*6A
$GPGGA,062302.00,3428.97672,N,13525.73251,E,1,12,0.76,27.0,M,34.4,M,,*6F
$GPGGA,062303.00,3428.97672,N,13525.73244,E,1,12,0.76,27.0,M,34.4,M,,*6A
$GPGGA,062304.00,3428.97672,N,13525.73237,E,1,12,0.76,27.1,M,34.4,M,,*68
$GPGGA,062305.00,3428.97670,N,13525.73231,E,1,12,0.76,27.1,M,34.4,M,,*6D
$GPGGA,062306.00,3428.97668,N,13525.73225,E,1,12,0.76,27.2,M,34.4,M,,*61
$GPGGA,062307.00,3428.97665,N,13525.73218,E,1,12,0.76,27.3,M,34.4,M,,*62
$GPGGA,062308.00,3428.97662,N,13525.73211,E,1,12,0.76,27.3,M,34.4,M,,*63
$GPGGA,062309.00,3428.97658,N,13525.73206,E,1,12,0.76,27.4,M,34.4,M,,*6A
$GPGGA,062310.00,3428.97655,N,13525.73202,E,1,12,0.76,27.5,M,34.4,M,,*6A
$GPGGA,062311.00,3428.97653,N,13525.73199,E,1,12,0.76,27.5,M,34.4,M,,*6C
$GPGGA,062312.00,3428.97672,N,13525.73204,E,1,12,0.74,27.8,M,34.4,M,,*64
$GPGGA,062313.00,3428.97687,N,13525.73210,E,1,12,0.74,28.1,M,34.4,M,,*6C
$GPGGA,062314.00,3428.97699,N,13525.73215,E,1,12,0.74,28.4,M,34.4,M,,*64
$GPGGA,062315.00,3428.97709,N,13525.73219,E,1,12,0.74,28.6,M,34.4,M,,*63
$GPGGA,062316.00,3428.97717,N,13525.73224,E,1,12,0.74,28.9,M,34.4,M,,*6E
$GPGGA,062317.00,3428.97723,N,13525.73234,E,1,12,0.74,29.2,M,34.4,M,,*63
$GPGGA,062318.00,3428.97720,N,13525.73258,E,1,12,0.79,29.3,M,34.4,M,,*69
$GPGGA,062319.00,3428.97705,N,13525.73306,E,1,12,0.76,29.3,M,34.4,M,,*6A
$GPGGA,062320.00,3428.97705,N,13525.73374,E,1,12,0.74,29.4,M,34.4,M,,*60
$GPGGA,062321.00,3428.97692,N,13525.73446,E,1,12,0.74,29.3,M,34.4,M,,*6F
$GPGGA,062322.00,3428.97668,N,13525.73516,E,1,12,0.74,29.4,M,34.4,M,,*6A
$GPGGA,062323.00,3428.97632,N,13525.73568,E,1,12,0.74,29.4,M,34.4,M,,*6D
$GPGGA,062324.00,3428.97601,N,13525.73598,E,1,12,0.74,29.5,M,34.4,M,,*64
$GPGGA,062325.00,3428.97563,N,13525.73622,E,1,12,0.77,29.5,M,34.4,M,,*63
$GPGGA,062326.00,3428.97489,N,13525.73656,E,1,12,0.76,29.5,M,34.4,M,,*67
$GPGGA,062327.00,3428.97405,N,13525.73732,E,1,12,0.79,29.6,M,34.4,M,,*6D
$GPGGA,062328.00,3428.97305,N,13525.73873,E,1,12,0.88,29.6,M,34.4,M,,*61
$GPGGA,062329.00,3428.97252,N,13525.74083,E,1,12,0.74,29.7,M,34.4,M,,*61
$GPGGA,062330.00,3428.97216,N,13525.74349,E,1,12,0.74,29.7,M,34.4,M,,*6C
$GPGGA,062331.00,3428.97178,N,13525.74667,E,1,12,0.68,29.7,M,34.4,M,,*62
$GPGGA,062332.00,3428.97131,N,13525.75032,E,1,12,0.83,29.9,M,34.4,M,,*60
$GPGGA,062333.00,3428.97078,N,13525.75449,E,1,12,0.72,30.1,M,34.4,M,,*6B
$GPGGA,062334.00,3428.97012,N,13525.75915,E,1,12,0.82,30.0,M,34.4,M,,*6A
$GPGGA,062335.00,3428.96935,N,13525.76410,E,1,12,0.71,29.8,M,34.4,M,,*61
$GPGGA,062336.00,3428.96852,N,13525.76926,E,1,12,0.68,29.7,M,34.4,M,,*6D
$GPGGA,062337.00,3428.96761,N,13525.77467,E,1,12,0.71,29.6,M,34.4,M,,*63
$GPGGA,062338.00,3428.96672,N,13525.78033,E,1,12,0.68,29.5,M,34.4,M,,*6E
$GPGGA,062339.00,3428.96569,N,13525.78615,E,1,12,0.79,29.4,M,34.4,M,,*65
$GPGGA,062340.00,3428.96481,N,13525.79224,E,1,12,0.68,29.4,M,34.4,M,,*6B
$GPGGA,062341.00,3428.96389,N,13525.79847,E,1,12,0.68,29.3,M,34.4,M,,*6D
$GPGGA,062342.00,3428.96291,N,13525.80481,E,1,12,0.72,29.3,M,34.4,M,,*6D
$GPGGA,062343.00,3428.96184,N,13525.81131,E,1,12,0.71,29.2,M,34.4,M,,*66
$GPGGA,062344.00,3428.96078,N,13525.81794,E,1,12,0.72,29.3,M,34.4,M,,*68
$GPGGA,062345.00,3428.95969,N,13525.82471,E,1,12,0.72,29.2,M,34.4,M,,*69
$GPGGA,062346.00,3428.95854,N,13525.83158,E,1,12,0.92,29.2,M,34.4,M,,*64
$GPGGA,062347.00,3428.95736,N,13525.83852,E,1,12,0.92,29.1,M,34.4,M,,*6E
$GPGGA,062348.00,3428.95616,N,13525.84555,E,1,12,0.76,29.1,M,34.4,M,,*65
$GPGGA,062349.00,3428.95496,N,13525.85256,E,1,12,0.80,29.1,M,34.4,M,,*62
$GPGGA,062350.00,3428.95384,N,13525.85966,E,1,12,0.70,29.0,M,34.4,M,,*68
$GPGGA,062351.00,3428.95267,N,13525.86681,E,1,12,0.68,28.9,M,34.4,M,,*61
$GPGGA,062352.00,3428.95155,N,13525.87393,E,1,12,0.72,29.0,M,34.4,M,,*64
$GPGGA,062353.00,3428.95030,N,13525.88100,E,1,12,1.00,28.9,M,34.4,M,,*6C
$GPGGA,062354.00,3428.94909,N,13525.88813,E,1,12,0.92,28.9,M,34.4,M,,*68
$GPGGA,062355.00,3428.94783,N,13525.89521,E,1,12,0.80,28.9,M,34.4,M,,*6B
$GPGGA,062356.00,3428.94664,N,13525.90242,E,1,12,0.95,28.8,M,34.4,M,,*6F
$GPGGA,062357.00,3428.94547,N,13525.90959,E,1,12,0.71,28.7,M,34.4,M,,*68
$GPGGA,062358.00,3428.94450,N,13525.91682,E,1,12,0.68,28.9,M,34.4,M,,*6E
$GPGGA,062359.00,3428.94326,N,13525.92399,E,1,12,0.71,28.8,M,34.4,M,,*6C
$GPGGA,062400.00,3428.94204,N,13525.93115,E,1,12,0.68,28.7,M,34.4,M,,*66
$GPGGA,062401.00,3428.94085,N,13525.93827,E,1,12,0.71,28.7,M,34.4,M,,*6C
$GPGGA,062402.00,3428.93967,N,13525.94540,E,1,12,0.71,28.7,M,34.4,M,,*66
$GPGGA,062403.00,3428.93848,N,13525.95252,E,1,12,0.68,28.6,M,34.4,M,,*67
$GPGGA,062404.00,3428.93721,N,13525.95965,E,1,12,0.71,28.6,M,34.4,M,,*67
$GPGGA,062405.00,3428.93597,N,13525.96678,E,1,12,0.71,28.6,M,34.4,M,,*69
$GPGGA,062406.00,3428.93484,N,13525.97394,E,1,12,0.72,28.7,M,34.4,M,,*6D
$GPGGA,062407.00,3428.93368,N,13525.98113,E,1,12,0.68,28.7,M,34.4,M,,*60
$GPGGA,062408.00,3428.93258,N,13525.98840,E,1,12,0.68,28.8,M,34.4,M,,*6D
$GPGGA,062409.00,3428.93137,N,13525.99565,E,1,12,0.71,28.7,M,34.4,M,,*6A
$GPGGA,062410.00,3428.93030,N,13526.00305,E,1,12,0.68,28.9,M,34.4,M,,*61
$GPGGA,062411.00,3428.92902,N,13526.01069,E,1,12,0.71,28.9,M,34.4,M,,*69
$GPGGA,062412.00,3428.92771,N,13526.01867,E,1,12,0.69,29.0,M,34.4,M,,*67
$GPGGA,062413.00,3428.92635,N,13526.02663,E,1,12,0.71,29.0,M,34.4,M,,*67
$GPGGA,062414.00,3428.92507,N,13526.03437,E,1,12,0.68,29.2,M,34.4,M,,*6A
$GPGGA,062415.00,3428.92369,N,13526.04183,E,1,12,0.71,29.2,M,34.4,M,,*60
$GPGGA,062416.00,3428.92250,N,13526.04914,E,1,12,0.68,29.3,M,34.4,M,,*67
$GPGGA,062417.00,3428.92123,N,13526.05630,E,1,12,1.00,29.3,M,34.4,M,,*66
$GPGGA,062418.00,3428.92012,N,13526.06338,E,1,12,0.87,29.5,M,34.4,M,,*6C
$GPGGA,062419.00,3428.91887,N,13526.07027,E,1,12,0.88,29.5,M,34.4,M,,*69
$GPGGA,062420.00,3428.91771,N,13526.07703,E,1,12,0.82,29.6,M,34.4,M,,*6D
$GPGGA,062421.00,3428.91668,N,13526.08367,E,1,12,0.81,29.5,M,34.4,M,,*6C
$GPGGA,062422.00,3428.91563,N,13526.09016,E,1,12,0.70,29.4,M,34.4,M,,*6C
$GPGGA,062423.00,3428.91455,N,13526.09658,E,1,12,0.76,29.4,M,34.4,M,,*63
$GPGGA,062424.00,3428.91351,N,13526.10297,E,1,12,0.83,29.5,M,34.4,M,,*63
$GPGGA,062425.00,3428.91250,N,13526.10948,E,1,12,0.68,29.5,M,34.4,M,,*6E
$GPGGA,062426.00,3428.91141,N,13526.11601,E,1,12,0.71,29.5,M,34.4,M,,*65
$GPGGA,062427.00,3428.91043,N,13526.12263,E,1,12,0.68,29.6,M,34.4,M,,*6F
$GPGGA,062428.00,3428.90941,N,13526.12924,E,1,12,0.68,29.7,M,34.4,M,,*63
$GPGGA,062429.00,3428.90843,N,13526.13586,E,1,12,0.68,29.9,M,34.4,M,,*6A
$GPGGA,062430.00,3428.90748,N,13526.14252,E,1,12,0.68,30.1,M,34.4,M,,*6F
$GPGGA,062431.00,3428.90649,N,13526.14916,E,1,12,0.68,30.2,M,34.4,M,,*66
$GPGGA,062432.00,3428.90529,N,13526.15573,E,1,12,0.68,30.4,M,34.4,M,,*68
$GPGGA,062433.00,3428.90363,N,13526.16215,E,1,12,0.71,30.4,M,34.4,M,,*6D
$GPGGA,062434.00,3428.90177,N,13526.16845,E,1,12,0.68,30.6,M,34.4,M,,*68
$GPGGA,062435.00,3428.89961,N,13526.17466,E,1,12,0.70,30.8,M,34.4,M,,*65
$GPGGA,062436.00,3428.89724,N,13526.18083,E,1,12,0.77,30.8,M,34.4,M,,*6E
$GPGGA,062437.00,3428.89480,N,13526.18698,E,1,12,0.88,30.9,M,34.4,M,,*6F
$GPGGA,062438.00,3428.89229,N,13526.19310,E,1,12,0.87,31.1,M,34.4,M,,*67
$GPGGA,062439.00,3428.88986,N,13526.19918,E,1,12,1.13,31.4,M,34.4,M,,*62
$GPGGA,062440.00,3428.88744,N,13526.20530,E,1,12,1.03,31.6,M,34.4,M,,*63
$GPGGA,062441.00,3428.88482,N,13526.21136,E,1,12,0.88,31.6,M,34.4,M,,*6A
$GPGGA,062442.00,3428.88234,N,13526.21747,E,1,12,0.87,31.8,M,34.4,M,,*63
$GPGGA,062443.00,3428.87973,N,13526.22357,E,1,12,0.88,31.9,M,34.4,M,,*6D
$GPGGA,062444.00,3428.87729,N,13526.22969,E,1,12,0.87,32.1,M,34.4,M,,*68
$GPGGA,062445.00,3428.87489,N,13526.23571,E,1,12,0.87,32.4,M,34.4,M,,*61
$GPGGA,062446.00,3428.87255,N,13526.24159,E,1,12,0.87,32.7,M,34.4,M,,*6F
$GPGGA,062447.00,3428.87021,N,13526.24731,E,1,12,0.88,32.8,M,34.4,M,,*67
$GPGGA,062448.00,3428.86806,N,13526.25291,E,1,12,0.87,33.0,M,34.4,M,,*6C
$GPGGA,062449.00,3428.86596,N,13526.25836,E,1,12,0.87,33.2,M,34.4,M,,*6C
$GPGGA,062450.00,3428.86386,N,13526.26368,E,1,12,0.87,33.4,M,34.4,M,,*66
$GPGGA,062451.00,3428.86181,N,13526.26888,E,1,12,0.87,33.5,M,34.4,M,,*66
$GPGGA,062452.00,3428.85983,N,13526.27394,E,1,12,0.87,33.7,M,34.4,M,,*69
$GPGGA,062453.00,3428.85790,N,13526.27891,E,1,12,0.87,33.9,M,34.4,M,,*64
$GPGGA,062454.00,3428.85606,N,13526.28376,E,1,12,0.87,34.0,M,34.4,M,,*6E
$GPGGA,062455.00,3428.85416,N,13526.28843,E,1,12,0.88,34.1,M,34.4,M,,*6F
$GPGGA,062456.00,3428.85235,N,13526.29286,E,1,12,0.87,34.1,M,34.4,M,,*66
$GPGGA,062457.00,3428.85073,N,13526.29704,E,1,12,0.87,34.3,M,34.4,M,,*6A
$GPGGA,062458.00,3428.84922,N,13526.30094,E,1,12,0.87,34.4,M,34.4,M,,*68
$GPGGA,062459.00,3428.84784,N,13526.30447,E,1,12,0.87,34.6,M,34.4,M,,*63
$GPGGA,062500.00,3428.84671,N,13526.30753,E,1,12,0.77,34.7,M,34.4,M,,*6D
$GPGGA,062501.00,3428.84567,N,13526.31015,E,1,12,0.91,34.9,M,34.4,M,,*6A
$GPGGA,062502.00,3428.84488,N,13526.31214,E,1,12,0.87,35.1,M,34.4,M,,*64
$GPGGA,062503.00,3428.84462,N,13526.31335,E,1,12,0.68,34.9,M,34.4,M,,*6B
$GPGGA,062504.00,3428.84450,N,13526.31370,E,1,12,0.68,34.7,M,34.4,M,,*62
$GPGGA,062505.00,3428.84455,N,13526.31360,E,1,12,0.68,34.4,M,34.4,M,,*64
$GPGGA,062506.00,3428.84461,N,13526.31341,E,1,12,0.68,34.3,M,34.4,M,,*64
$GPGGA,062507.00,3428.84469,N,13526.31324,E,1,12,0.68,34.2,M,34.4,M,,*6F
$GPGGA,062508.00,3428.84471,N,13526.31312,E,1,12,0.68,34.0,M,34.4,M,,*6E
$GPGGA,062509.00,3428.84472,N,13526.31302,E,1,12,0.68,33.9,M,34.4,M,,*63
$GPGGA,062510.00,3428.84473,N,13526.31293,E,1,12,0.68,33.9,M,34.4,M,,*63
$GPGGA,062511.00,3428.84472,N,13526.31287,E,1,12,0.68,33.8,M,34.4,M,,*67
$GPGGA,062512.00,3428.84469,N,13526.31281,E,1,12,0.71,33.7,M,34.4,M,,*6F
$GPGGA,062513.00,3428.84466,N,13526.31276,E,1,12,0.70,33.6,M,34.4,M,,*69
$GPGGA,062514.00,3428.84462,N,13526.31272,E,1,12,0.77,33.5,M,34.4,M,,*6A
$GPGGA,062515.00,3428.84457,N,13526.31271,E,1,12,0.77,33.4,M,34.4,M,,*6F
$GPGGA,062516.00,3428.84451,N,13526.31270,E,1,12,0.71,33.3,M,34.4,M,,*6A
$GPGGA,062517.00,3428.84444,N,13526.31269,E,1,12,0.70,33.2,M,34.4,M,,*67
$GPGGA,062518.00,3428.84438,N,13526.31269,E,1,12,0.70,33.2,M,34.4,M,,*63
$GPGGA,062519.00,3428.84433,N,13526.31269,E,1,12,0.70,33.1,M,34.4,M,,*6A
$GPGGA,062520.00,3428.84428,N,13526.31268,E,1,12,0.68,33.1,M,34.4,M,,*62
$GPGGA,062521.00,3428.84423,N,13526.31268,E,1,12,0.68,33.0,M,34.4,M,,*69
$GPGGA,062522.00,3428.84419,N,13526.31269,E,1,12,0.68,33.0,M,34.4,M,,*62
$GPGGA,062523.00,3428.84427,N,13526.31276,E,1,12,0.68,33.1,M,34.4,M,,*61
$GPGGA,062524.00,3428.84416,N,13526.31294,E,1,12,0.68,33.1,M,34.4,M,,*68
$GPGGA,062525.00,3428.84396,N,13526.31357,E,1,12,0.72,33.2,M,34.4,M,,*60
$GPGGA,062526.00,3428.84360,N,13526.31497,E,1,12,0.68,33.4,M,34.4,M,,*6C
$GPGGA,062527.00,3428.84297,N,13526.31689,E,1,12,0.72,33.5,M,34.4,M,,*63
$GPGGA,062528.00,3428.84213,N,13526.31929,E,1,12,0.74,33.7,M,34.4,M,,*61
$GPGGA,062529.00,3428.84109,N,13526.32200,E,1,12,0.70,33.7,M,34.4,M,,*6F
$GPGGA,062530.00,3428.83974,N,13526.32510,E,1,12,0.79,33.7,M,34.4,M,,*6D
$GPGGA,062531.00,3428.83835,N,13526.32869,E,1,12,0.68,33.6,M,34.4,M,,*6A
$GPGGA,062532.00,3428.83675,N,13526.33253,E,1,12,0.77,33.6,M,34.4,M,,*6F
$GPGGA,062533.00,3428.83507,N,13526.33669,E,1,12,0.77,33.6,M,34.4,M,,*65
$GPGGA,062534.00,3428.83321,N,13526.34107,E,1,12,0.79,33.5,M,34.4,M,,*65
$GPGGA,062535.00,3428.83143,N,13526.34562,E,1,12,0.77,33.6,M,34.4,M,,*68
$GPGGA,062536.00,3428.82963,N,13526.35025,E,1,12,0.77,33.6,M,34.4,M,,*67
$GPGGA,062537.00,3428.82779,N,13526.35491,E,1,12,0.77,33.7,M,34.4,M,,*69
$GPGGA,062538.00,3428.82588,N,13526.35960,E,1,12,0.77,33.8,M,34.4,M,,*66
$GPGGA,062539.00,3428.82385,N,13526.36435,E,1,12,0.92,33.7,M,34.4,M,,*66
$GPGGA,062540.00,3428.82187,N,13526.36912,E,1,12,0.87,33.6,M,34.4,M,,*65
$GPGGA,062541.00,3428.82000,N,13526.37398,E,1,12,0.93,33.8,M,34.4,M,,*68
$GPGGA,062542.00,3428.81805,N,13526.37864,E,1,12,0.92,33.8,M,34.4,M,,*6C
$GPGGA,062543.00,3428.81618,N,13526.38310,E,1,12,0.92,33.9,M,34.4,M,,*69
$GPGGA,062544.00,3428.81441,N,13526.38736,E,1,12,0.91,34.0,M,34.4,M,,*6D
$GPGGA,062545.00,3428.81265,N,13526.39142,E,1,12,1.00,34.0,M,34.4,M,,*61
$GPGGA,062546.00,3428.81093,N,13526.39538,E,1,12,1.06,34.1,M,34.4,M,,*67
$GPGGA,062547.00,3428.80919,N,13526.39942,E,1,12,1.00,34.1,M,34.4,M,,*6B
$GPGGA,062548.00,3428.80742,N,13526.40366,E,1,12,1.15,34.2,M,34.4,M,,*61
$GPGGA,062549.00,3428.80558,N,13526.40809,E,1,12,1.15,34.3,M,34.4,M,,*6A
$GPGGA,062550.00,3428.80364,N,13526.41279,E,1,12,1.15,34.4,M,34.4,M,,*60
$GPGGA,062551.00,3428.80166,N,13526.41780,E,1,12,0.92,34.4,M,34.4,M,,*6C
$GPGGA,062552.00,3428.79964,N,13526.42305,E,1,12,0.92,34.5,M,34.4,M,,*68
$GPGGA,062553.00,3428.79754,N,13526.42845,E,1,12,0.92,34.6,M,34.4,M,,*68
$GPGGA,062554.00,3428.79531,N,13526.43399,E,1,12,1.00,34.6,M,34.4,M,,*6F
$GPGGA,062555.00,3428.79299,N,13526.43968,E,1,12,1.20,34.7,M,34.4,M,,*6C
$GPGGA,062556.00,3428.79065,N,13526.44553,E,1,12,1.00,34.7,M,34.4,M,,*6F
$GPGGA,062557.00,3428.78823,N,13526.45148,E,1,12,0.92,34.7,M,34.4,M,,*60
$GPGGA,062558.00,3428.78569,N,13526.45747,E,1,12,0.92,34.7,M,34.4,M,,*65
$GPGGA,062559.00,3428.78313,N,13526.46355,E,1,12,1.19,34.7,M,34.4,M,,*69
$GPGGA,062600.00,3428.78046,N,13526.46968,E,1,12,0.92,34.7,M,34.4,M,,*63
$GPGGA,062601.00,3428.77785,N,13526.47607,E,1,12,0.92,34.8,M,34.4,M,,*6D
$GPGGA,062602.00,3428.77516,N,13526.48255,E,1,12,0.92,34.9,M,34.4,M,,*6B
$GPGGA,062603.00,3428.77245,N,13526.48906,E,1,12,0.88,35.2,M,34.4,M,,*67
$GPGGA,062604.00,3428.76977,N,13526.49562,E,1,12,0.92,35.5,M,34.4,M,,*68
$GPGGA,062605.00,3428.76703,N,13526.50218,E,1,12,1.00,35.9,M,34.4,M,,*60
$GPGGA,062606.00,3428.76429,N,13526.50873,E,1,12,1.00,36.2,M,34.4,M,,*67
$GPGGA,062607.00,3428.76156,N,13526.51531,E,1,12,1.08,36.3,M,34.4,M,,*68
$GPGGA,062608.00,3428.75895,N,13526.52197,E,1,12,0.92,36.7,M,34.4,M,,*6F
$GPGGA,062609.00,3428.75624,N,13526.52867,E,1,12,0.92,37.0,M,34.4,M,,*6A
$GPGGA,062610.00,3428.75348,N,13526.53540,E,1,12,0.79,37.2,M,34.4,M,,*63
$GPGGA,062611.00,3428.75072,N,13526.54216,E,1,12,0.92,37.5,M,34.4,M,,*69
$GPGGA,062612.00,3428.74794,N,13526.54888,E,1,12,1.00,37.7,M,34.4,M,,*61
$GPGGA,062613.00,3428.74520,N,13526.55552,E,1,12,1.00,37.8,M,34.4,M,,*69
$GPGGA,062614.00,3428.74264,N,13526.56195,E,1,12,0.99,37.5,M,34.4,M,,*69
$GPGGA,062615.00,3428.74009,N,13526.56822,E,1,12,0.99,37.3,M,34.4,M,,*62
$GPGGA,062616.00,3428.73753,N,13526.57436,E,1,12,1.00,37.3,M,34.4,M,,*67
$GPGGA,062617.00,3428.73514,N,13526.58028,E,1,12,0.99,37.0,M,34.4,M,,*61
$GPGGA,062618.00,3428.73280,N,13526.58610,E,1,12,0.99,36.8,M,34.4,M,,*60
$GPGGA,062619.00,3428.73050,N,13526.59187,E,1,12,1.19,36.8,M,34.4,M,,*6F
$GPGGA,062620.00,3428.72859,N,13526.59754,E,1,12,0.99,36.5,M,34.4,M,,*69
$GPGGA,062621.00,3428.72683,N,13526.60310,E,1,12,0.99,36.3,M,34.4,M,,*69
$GPGGA,062622.00,3428.72481,N,13526.60841,E,1,12,1.04,36.0,M,34.4,M,,*63
$GPGGA,062623.00,3428.72224,N,13526.61341,E,1,12,0.99,35.8,M,34.4,M,,*6F
$GPGGA,062624.00,3428.71918,N,13526.61806,E,1,12,0.99,35.4,M,34.4,M,,*6B
$GPGGA,062625.00,3428.71574,N,13526.62256,E,1,12,0.99,35.1,M,34.4,M,,*65
$GPGGA,062626.00,3428.71211,N,13526.62705,E,1,12,0.99,34.9,M,34.4,M,,*68
$GPGGA,062627.00,3428.70845,N,13526.63156,E,1,12,0.99,34.7,M,34.4,M,,*6C
$GPGGA,062628.00,3428.70483,N,13526.63608,E,1,12,0.84,34.5,M,34.4,M,,*67
$GPGGA,062629.00,3428.70131,N,13526.64056,E,1,12,0.99,34.3,M,34.4,M,,*6A
$GPGGA,062630.00,3428.69787,N,13526.64497,E,1,12,1.14,34.2,M,34.4,M,,*6D
$GPGGA,062631.00,3428.69450,N,13526.64928,E,1,12,1.18,34.0,M,34.4,M,,*62
$GPGGA,062632.00,3428.69106,N,13526.65335,E,1,12,0.92,34.1,M,34.4,M,,*62
$GPGGA,062633.00,3428.68777,N,13526.65732,E,1,12,1.03,34.1,M,34.4,M,,*68
$GPGGA,062634.00,3428.68450,N,13526.66121,E,1,12,1.13,34.0,M,34.4,M,,*6E
$GPGGA,062635.00,3428.68132,N,13526.66506,E,1,11,0.99,33.9,M,34.4,M,,*61
$GPGGA,062636.00,3428.67823,N,13526.66880,E,1,12,0.98,33.8,M,34.4,M,,*64
$GPGGA,062637.00,3428.67517,N,13526.67239,E,1,11,0.98,33.7,M,34.4,M,,*6A
$GPGGA,062638.00,3428.67224,N,13526.67584,E,1,12,0.98,33.6,M,34.4,M,,*61
$GPGGA,062639.00,3428.66952,N,13526.67903,E,1,11,1.04,33.5,M,34.4,M,,*6C
$GPGGA,062640.00,3428.66723,N,13526.68178,E,1,12,1.04,33.4,M,34.4,M,,*63
$GPGGA,062641.00,3428.66544,N,13526.68392,E,1,12,0.84,33.2,M,34.4,M,,*68
$GPGGA,062642.00,3428.66428,N,13526.68532,E,1,12,0.98,33.1,M,34.4,M,,*62
$GPGGA,062643.00,3428.66372,N,13526.68599,E,1,12,0.84,33.1,M,34.4,M,,*67
$GPGGA,062644.00,3428.66361,N,13526.68602,E,1,12,0.75,33.0,M,34.4,M,,*6C
$GPGGA,062645.00,3428.66374,N,13526.68585,E,1,12,0.79,32.8,M,34.4,M,,*60
$GPGGA,062646.00,3428.66386,N,13526.68569,E,1,12,0.79,32.7,M,34.4,M,,*63
$GPGGA,062647.00,3428.66396,N,13526.68552,E,1,12,0.70,32.5,M,34.4,M,,*60
$GPGGA,062648.00,3428.66406,N,13526.68539,E,1,12,0.79,32.3,M,34.4,M,,*63
$GPGGA,062649.00,3428.66415,N,13526.68526,E,1,12,0.84,32.1,M,34.4,M,,*6E
$GPGGA,062650.00,3428.66425,N,13526.68515,E,1,12,0.79,31.9,M,34.4,M,,*6C
$GPGGA,062651.00,3428.66433,N,13526.68505,E,1,12,0.79,31.8,M,34.4,M,,*6A
$GPGGA,062652.00,3428.66440,N,13526.68495,E,1,12,0.79,31.6,M,34.4,M,,*6B
$GPGGA,062653.00,3428.66446,N,13526.68486,E,1,12,0.79,31.4,M,34.4,M,,*6C
$GPGGA,062654.00,3428.66451,N,13526.68476,E,1,12,0.70,31.3,M,34.4,M,,*6C
$GPGGA,062655.00,3428.66457,N,13526.68470,E,1,12,0.79,31.1,M,34.4,M,,*66
$GPGGA,062656.00,3428.66463,N,13526.68465,E,1,12,0.79,30.9,M,34.4,M,,*6F
$GPGGA,062657.00,3428.66469,N,13526.68458,E,1,12,0.79,30.8,M,34.4,M,,*6B
$GPGGA,062658.00,3428.66475,N,13526.68452,E,1,12,0.79,30.6,M,34.4,M,,*6D
$GPGGA,062659.00,3428.66481,N,13526.68448,E,1,12,0.79,30.4,M,34.4,M,,*6E
$GPGGA,062700.00,3428.66486,N,13526.68447,E,1,12,0.79,30.2,M,34.4,M,,*6D
$GPGGA,062701.00,3428.66490,N,13526.68446,E,1,12,0.79,30.1,M,34.4,M,,*69
$GPGGA,062702.00,3428.66492,N,13526.68447,E,1,12,0.79,29.9,M,34.4,M,,*69
$GPGGA,062703.00,3428.66506,N,13526.68458,E,1,12,0.86,30.0,M,34.4,M,,*6B
$GPGGA,062704.00,3428.66481,N,13526.68487,E,1,12,0.98,30.0,M,34.4,M,,*6F
$GPGGA,062705.00,3428.66419,N,13526.68566,E,1,12,0.98,29.9,M,34.4,M,,*60
$GPGGA,062706.00,3428.66314,N,13526.68691,E,1,12,0.98,30.0,M,34.4,M,,*63
$GPGGA,062707.00,3428.66180,N,13526.68858,E,1,12,0.98,30.1,M,34.4,M,,*67
$GPGGA,062708.00,3428.66025,N,13526.69054,E,1,12,0.98,30.1,M,34.4,M,,*63
$GPGGA,062709.00,3428.65861,N,13526.69267,E,1,12,0.88,30.3,M,34.4,M,,*68
$GPGGA,062710.00,3428.65709,N,13526.69480,E,1,12,0.86,30.4,M,34.4,M,,*67
$GPGGA,062711.00,3428.65547,N,13526.69698,E,1,12,0.88,30.6,M,34.4,M,,*69
$GPGGA,062712.00,3428.65379,N,13526.69913,E,1,12,0.86,30.6,M,34.4,M,,*63
$GPGGA,062713.00,3428.65248,N,13526.70138,E,1,12,0.86,30.9,M,34.4,M,,*67
$GPGGA,062714.00,3428.65192,N,13526.70390,E,1,12,0.79,31.2,M,34.4,M,,*6E
$GPGGA,062715.00,3428.65242,N,13526.70648,E,1,12,0.88,31.6,M,34.4,M,,*6B
$GPGGA,062716.00,3428.65388,N,13526.70877,E,1,12,0.88,32.0,M,34.4,M,,*68
$GPGGA,062717.00,3428.65583,N,13526.71094,E,1,12,0.88,32.4,M,34.4,M,,*64
$GPGGA,062718.00,3428.65801,N,13526.71336,E,1,12,0.88,32.8,M,34.4,M,,*6B
$GPGGA,062719.00,3428.66051,N,13526.71618,E,1,12,0.78,33.1,M,34.4,M,,*6A
$GPGGA,062720.00,3428.66323,N,13526.71935,E,1,12,0.77,33.4,M,34.4,M,,*6C
$GPGGA,062721.00,3428.66611,N,13526.72278,E,1,12,0.98,33.9,M,34.4,M,,*64
$GPGGA,062722.00,3428.66900,N,13526.72643,E,1,12,0.96,34.2,M,34.4,M,,*66
$GPGGA,062723.00,3428.67230,N,13526.73037,E,1,12,0.79,34.5,M,34.4,M,,*6C
$GPGGA,062724.00,3428.67550,N,13526.73438,E,1,12,0.92,34.7,M,34.4,M,,*66
$GPGGA,062725.00,3428.67871,N,13526.73856,E,1,12,1.18,34.9,M,34.4,M,,*60
$GPGGA,062726.00,3428.68201,N,13526.74294,E,1,12,0.82,35.0,M,34.4,M,,*68
$GPGGA,062727.00,3428.68514,N,13526.74741,E,1,12,1.18,35.3,M,34.4,M,,*66
$GPGGA,062728.00,3428.68781,N,13526.75226,E,1,12,1.06,35.3,M,34.4,M,,*6D
$GPGGA,062729.00,3428.68981,N,13526.75767,E,1,12,1.06,35.6,M,34.4,M,,*67
$GPGGA,062730.00,3428.69107,N,13526.76360,E,1,12,0.92,35.9,M,34.4,M,,*6B
$GPGGA,062731.00,3428.69168,N,13526.76989,E,1,12,0.96,36.2,M,34.4,M,,*62
$GPGGA,062732.00,3428.69197,N,13526.77638,E,1,12,1.21,36.6,M,34.4,M,,*6C
$GPGGA,062733.00,3428.69207,N,13526.78304,E,1,12,1.19,36.9,M,34.4,M,,*66
$GPGGA,062734.00,3428.69214,N,13526.78983,E,1,12,1.00,37.3,M,34.4,M,,*65
$GPGGA,062735.00,3428.69223,N,13526.79670,E,1,12,1.18,37.5,M,34.4,M,,*6D
$GPGGA,062736.00,3428.69229,N,13526.80365,E,1,11,1.18,37.6,M,34.4,M,,*63
$GPGGA,062737.00,3428.69209,N,13526.81069,E,1,11,1.18,37.8,M,34.4,M,,*60
$GPGGA,062738.00,3428.69175,N,13526.81774,E,1,12,1.18,38.0,M,34.4,M,,*68
$GPGGA,062739.00,3428.69143,N,13526.82472,E,1,12,1.18,38.1,M,34.4,M,,*6B
$GPGGA,062740.00,3428.69094,N,13526.83169,E,1,12,0.99,38.2,M,34.4,M,,*6B
$GPGGA,062741.00,3428.69050,N,13526.83862,E,1,12,0.98,38.2,M,34.4,M,,*61
$GPGGA,062742.00,3428.68995,N,13526.84567,E,1,12,1.05,38.3,M,34.4,M,,*68
$GPGGA,062743.00,3428.68933,N,13526.85280,E,1,12,1.18,38.5,M,34.4,M,,*60
$GPGGA,062744.00,3428.68866,N,13526.86003,E,1,11,1.18,38.6,M,34.4,M,,*6C
$GPGGA,062745.00,3428.68808,N,13526.86734,E,1,11,0.99,38.6,M,34.4,M,,*6E
$GPGGA,062746.00,3428.68771,N,13526.87478,E,1,11,1.05,38.7,M,34.4,M,,*63
$GPGGA,062747.00,3428.68750,N,13526.88227,E,1,11,1.18,38.8,M,34.4,M,,*61
$GPGGA,062748.00,3428.68726,N,13526.88981,E,1,11,0.99,38.9,M,34.4,M,,*61
$GPGGA,062749.00,3428.68698,N,13526.89739,E,1,11,1.18,38.9,M,34.4,M,,*60
$GPGGA,062750.00,3428.68664,N,13526.90490,E,1,12,0.99,39.0,M,34.4,M,,*60
$GPGGA,062751.00,3428.68626,N,13526.91235,E,1,12,0.99,39.3,M,34.4,M,,*6C
$GPGGA,062752.00,3428.68586,N,13526.91981,E,1,11,1.05,39.7,M,34.4,M,,*61
$GPGGA,062753.00,3428.68545,N,13526.92732,E,1,10,0.99,40.0,M,34.4,M,,*66
$GPGGA,062754.00,3428.68503,N,13526.93483,E,1,12,2.07,40.3,M,34.4,M,,*6F
$GPGGA,062755.00,3428.68454,N,13526.94237,E,1,10,2.08,40.7,M,34.4,M,,*6A
$GPGGA,062756.00,3428.68389,N,13526.94994,E,1,09,2.07,41.1,M,34.4,M,,*6C
$GPGGA,062757.00,3428.68304,N,13526.95755,E,1,09,2.07,41.4,M,34.4,M,,*6F
$GPGGA,062758.00,3428.68190,N,13526.96527,E,1,08,1.29,41.9,M,34.4,M,,*68
$GPGGA,062759.00,3428.68103,N,13526.97297,E,1,09,1.27,42.6,M,34.4,M,,*6D
$GPGGA,062800.00,3428.68012,N,13526.98062,E,1,10,1.04,43.0,M,34.4,M,,*66
$GPGGA,062801.00,3428.67932,N,13526.98822,E,1,10,1.50,43.4,M,34.4,M,,*6A
$GPGGA,062802.00,3428.67881,N,13526.99590,E,1,11,0.95,44.3,M,34.4,M,,*6C
$GPGGA,062803.00,3428.67831,N,13527.00348,E,1,11,1.17,45.0,M,34.4,M,,*6D
$GPGGA,062804.00,3428.67772,N,13527.01097,E,1,11,1.26,45.3,M,34.4,M,,*63
$GPGGA,062805.00,3428.67737,N,13527.01851,E,1,11,1.39,45.4,M,34.4,M,,*68
$GPGGA,062806.00,3428.67726,N,13527.02602,E,1,12,1.05,45.5,M,34.4,M,,*6D
$GPGGA,062807.00,3428.67736,N,13527.03354,E,1,12,0.99,45.6,M,34.4,M,,*6D
$GPGGA,062808.00,3428.67770,N,13527.04109,E,1,12,0.99,45.7,M,34.4,M,,*6C
$GPGGA,062809.00,3428.67831,N,13527.04863,E,1,10,2.07,45.8,M,34.4,M,,*6A
$GPGGA,062810.00,3428.67921,N,13527.05625,E,1,09,1.18,46.1,M,34.4,M,,*60
$GPGGA,062811.00,3428.68024,N,13527.06390,E,1,11,1.39,46.3,M,34.4,M,,*62
$GPGGA,062812.00,3428.68152,N,13527.07152,E,1,11,1.39,46.5,M,34.4,M,,*6A
$GPGGA,062813.00,3428.68289,N,13527.07917,E,1,10,2.07,46.6,M,34.4,M,,*6B
$GPGGA,062814.00,3428.68428,N,13527.08682,E,1,10,1.39,46.8,M,34.4,M,,*6D
$GPGGA,062815.00,3428.68554,N,13527.09450,E,1,10,1.39,47.1,M,34.4,M,,*62
$GPGGA,062816.00,3428.68670,N,13527.10213,E,1,09,1.39,47.3,M,34.4,M,,*67
$GPGGA,062817.00,3428.68810,N,13527.10970,E,1,09,1.21,47.7,M,34.4,M,,*6D
$GPGGA,062818.00,3428.68951,N,13527.11718,E,1,10,1.21,48.0,M,34.4,M,,*67
$GPGGA,062819.00,3428.69094,N,13527.12458,E,1,12,1.05,48.3,M,34.4,M,,*64
$GPGGA,062820.00,3428.69227,N,13527.13201,E,1,12,1.12,48.6,M,34.4,M,,*6C
$GPGGA,062821.00,3428.69358,N,13527.13939,E,1,10,0.99,48.8,M,34.4,M,,*6A
$GPGGA,062822.00,3428.69487,N,13527.14677,E,1,11,0.99,49.0,M,34.4,M,,*66
$GPGGA,062823.00,3428.69613,N,13527.15417,E,1,12,0.99,49.2,M,34.4,M,,*6C
$GPGGA,062824.00,3428.69749,N,13527.16149,E,1,12,0.98,49.0,M,34.4,M,,*6B
$GPGGA,062825.00,3428.69870,N,13527.16878,E,1,12,0.99,49.1,M,34.4,M,,*64
$GPGGA,062826.00,3428.69989,N,13527.17592,E,1,11,0.99,49.2,M,34.4,M,,*68
$GPGGA,062827.00,3428.70108,N,13527.18296,E,1,12,0.99,49.4,M,34.4,M,,*69
$GPGGA,062828.00,3428.70219,N,13527.19001,E,1,12,1.21,49.8,M,34.4,M,,*66
$GPGGA,062829.00,3428.70299,N,13527.19714,E,1,12,1.12,50.2,M,34.4,M,,*6E
$GPGGA,062830.00,3428.70333,N,13527.20428,E,1,10,0.99,50.5,M,34.4,M,,*66
$GPGGA,062831.00,3428.70320,N,13527.21141,E,1,10,1.20,50.9,M,34.4,M,,*61
$GPGGA,062832.00,3428.70263,N,13527.21842,E,1,12,1.10,51.2,M,34.4,M,,*65
$GPGGA,062833.00,3428.70162,N,13527.22544,E,1,10,1.05,51.5,M,34.4,M,,*6F
$GPGGA,062834.00,3428.70047,N,13527.23247,E,1,10,1.20,51.8,M,34.4,M,,*61
$GPGGA,062835.00,3428.69932,N,13527.23948,E,1,10,0.99,52.2,M,34.4,M,,*6D
$GPGGA,062836.00,3428.69819,N,13527.24643,E,1,10,0.99,52.4,M,34.4,M,,*63
$GPGGA,062837.00,3428.69708,N,13527.25330,E,1,11,0.92,52.9,M,34.4,M,,*6A
$GPGGA,062838.00,3428.69618,N,13527.26012,E,1,12,0.91,53.9,M,34.4,M,,*64
$GPGGA,062839.00,3428.69511,N,13527.26695,E,1,12,0.92,54.3,M,34.4,M,,*68
$GPGGA,062840.00,3428.69395,N,13527.27385,E,1,12,0.99,54.7,M,34.4,M,,*66
$GPGGA,062841.00,3428.69277,N,13527.28081,E,1,12,0.99,54.9,M,34.4,M,,*6C
$GPGGA,062842.00,3428.69154,N,13527.28779,E,1,12,0.99,55.2,M,34.4,M,,*67
$GPGGA,062843.00,3428.69029,N,13527.29478,E,1,12,0.99,55.4,M,34.4,M,,*68
$GPGGA,062844.00,3428.68908,N,13527.30177,E,1,12,0.99,55.6,M,34.4,M,,*64
$GPGGA,062845.00,3428.68788,N,13527.30880,E,1,11,0.99,55.7,M,34.4,M,,*60
$GPGGA,062846.00,3428.68670,N,13527.31585,E,1,12,1.25,55.9,M,34.4,M,,*67
$GPGGA,062847.00,3428.68556,N,13527.32301,E,1,11,1.12,56.0,M,34.4,M,,*65
$GPGGA,062848.00,3428.68443,N,13527.33014,E,1,11,0.99,56.2,M,34.4,M,,*69
$GPGGA,062849.00,3428.68323,N,13527.33727,E,1,11,1.12,56.3,M,34.4,M,,*6D
$GPGGA,062850.00,3428.68199,N,13527.34440,E,1,11,0.99,56.5,M,34.4,M,,*67
$GPGGA,062851.00,3428.68068,N,13527.35150,E,1,11,0.99,56.6,M,34.4,M,,*6F
$GPGGA,062852.00,3428.67956,N,13527.35864,E,1,12,0.90,56.2,M,34.4,M,,*67
$GPGGA,062853.00,3428.67848,N,13527.36583,E,1,12,0.77,56.0,M,34.4,M,,*64
$GPGGA,062854.00,3428.67754,N,13527.37300,E,1,12,0.83,56.5,M,34.4,M,,*63
$GPGGA,062855.00,3428.67659,N,13527.38014,E,1,12,0.83,56.8,M,34.4,M,,*6A
$GPGGA,062856.00,3428.67546,N,13527.38722,E,1,12,0.92,56.9,M,34.4,M,,*67
$GPGGA,062857.00,3428.67419,N,13527.39437,E,1,12,0.99,57.0,M,34.4,M,,*68
$GPGGA,062858.00,3428.67296,N,13527.40155,E,1,12,0.99,57.1,M,34.4,M,,*68
$GPGGA,062859.00,3428.67178,N,13527.40873,E,1,12,0.92,57.3,M,34.4,M,,*6E
$GPGGA,062900.00,3428.67055,N,13527.41592,E,1,12,0.99,57.5,M,34.4,M,,*63
$GPGGA,062901.00,3428.66929,N,13527.42316,E,1,11,0.99,57.7,M,34.4,M,,*69
$GPGGA,062902.00,3428.66803,N,13527.43050,E,1,12,0.93,57.7,M,34.4,M,,*6A
$GPGGA,062903.00,3428.66682,N,13527.43783,E,1,12,0.90,57.6,M,34.4,M,,*67
$GPGGA,062904.00,3428.66573,N,13527.44522,E,1,12,0.76,57.8,M,34.4,M,,*65
$GPGGA,062905.00,3428.66454,N,13527.45267,E,1,12,0.77,57.7,M,34.4,M,,*69
$GPGGA,062906.00,3428.66334,N,13527.46019,E,1,12,0.86,57.8,M,34.4,M,,*62
$GPGGA,062907.00,3428.66220,N,13527.46784,E,1,12,0.91,58.2,M,34.4,M,,*67
$GPGGA,062908.00,3428.66109,N,13527.47546,E,1,12,0.83,58.6,M,34.4,M,,*6A
$GPGGA,062909.00,3428.65984,N,13527.48308,E,1,12,0.86,58.8,M,34.4,M,,*6D
$GPGGA,062910.00,3428.65857,N,13527.49078,E,1,12,0.92,59.1,M,34.4,M,,*62
$GPGGA,062911.00,3428.65746,N,13527.49846,E,1,12,0.83,59.5,M,34.4,M,,*6D
$GPGGA,062912.00,3428.65631,N,13527.50617,E,1,12,0.83,59.9,M,34.4,M,,*61
$GPGGA,062913.00,3428.65513,N,13527.51385,E,1,12,0.83,60.6,M,34.4,M,,*69
$GPGGA,062914.00,3428.65385,N,13527.52146,E,1,12,0.86,61.1,M,34.4,M,,*6A
$GPGGA,062915.00,3428.65253,N,13527.52905,E,1,12,0.92,61.8,M,34.4,M,,*62
$GPGGA,062916.00,3428.65135,N,13527.53657,E,1,12,0.83,62.7,M,34.4,M,,*67
$GPGGA,062917.00,3428.65024,N,13527.54397,E,1,12,0.83,63.5,M,34.4,M,,*6A
$GPGGA,062918.00,3428.64896,N,13527.55125,E,1,12,0.97,64.2,M,34.4,M,,*6A
$GPGGA,062919.00,3428.64780,N,13527.55834,E,1,12,0.86,64.9,M,34.4,M,,*61
$GPGGA,062920.00,3428.64678,N,13527.56528,E,1,12,0.86,65.7,M,34.4,M,,*61
$GPGGA,062921.00,3428.64607,N,13527.57208,E,1,12,0.83,66.6,M,34.4,M,,*6B
$GPGGA,062922.00,3428.64582,N,13527.57882,E,1,12,0.83,67.6,M,34.4,M,,*6F
$GPGGA,062923.00,3428.64612,N,13527.58548,E,1,12,0.86,68.5,M,34.4,M,,*69
$GPGGA,062924.00,3428.64694,N,13527.59204,E,1,12,0.97,69.3,M,34.4,M,,*69
$GPGGA,062925.00,3428.64822,N,13527.59850,E,1,12,0.99,70.0,M,34.4,M,,*65
$GPGGA,062926.00,3428.64996,N,13527.60478,E,1,12,0.92,70.9,M,34.4,M,,*66
$GPGGA,062927.00,3428.65214,N,13527.61084,E,1,12,0.99,71.7,M,34.4,M,,*65
$GPGGA,062928.00,3428.65474,N,13527.61664,E,1,12,0.92,72.6,M,34.4,M,,*6B
$GPGGA,062929.00,3428.65775,N,13527.62214,E,1,12,0.92,73.4,M,34.4,M,,*6B
$GPGGA,062930.00,3428.66109,N,13527.62736,E,1,12,0.99,74.2,M,34.4,M,,*62
$GPGGA,062931.00,3428.66475,N,13527.63233,E,1,11,0.99,74.9,M,34.4,M,,*64
$GPGGA,062932.00,3428.66857,N,13527.63726,E,1,10,1.18,75.5,M,34.4,M,,*6E
$GPGGA,062933.00,3428.67241,N,13527.64230,E,1,10,0.99,76.0,M,34.4,M,,*68
$GPGGA,062934.00,3428.67615,N,13527.64757,E,1,12,1.10,76.6,M,34.4,M,,*6A
$GPGGA,062935.00,3428.67976,N,13527.65304,E,1,11,0.96,77.1,M,34.4,M,,*68
$GPGGA,062936.00,3428.68310,N,13527.65874,E,1,12,1.05,77.6,M,34.4,M,,*6D
$GPGGA,062937.00,3428.68620,N,13527.66459,E,1,11,0.99,78.0,M,34.4,M,,*64
$GPGGA,062938.00,3428.68908,N,13527.67054,E,1,11,0.99,78.3,M,34.4,M,,*65
$GPGGA,062939.00,3428.69177,N,13527.67651,E,1,12,1.18,78.6,M,34.4,M,,*68
$GPGGA,062940.00,3428.69450,N,13527.68234,E,1,12,1.19,79.1,M,34.4,M,,*69
$GPGGA,062941.00,3428.69697,N,13527.68783,E,1,11,2.08,79.4,M,34.4,M,,*6D
$GPGGA,062942.00,3428.69919,N,13527.69295,E,1,11,2.08,79.7,M,34.4,M,,*67
$GPGGA,062943.00,3428.70101,N,13527.69741,E,1,10,1.05,80.0,M,34.4,M,,*6D
$GPGGA,062944.00,3428.70241,N,13527.70090,E,1,10,1.05,80.2,M,34.4,M,,*6C
$GPGGA,062945.00,3428.70359,N,13527.70330,E,1,11,1.03,80.3,M,34.4,M,,*6A
$GPGGA,062946.00,3428.70417,N,13527.70479,E,1,11,1.05,80.4,M,34.4,M,,*6F
$GPGGA,062947.00,3428.70440,N,13527.70539,E,1,11,1.05,80.3,M,34.4,M,,*6E
$GPGGA,062948.00,3428.70443,N,13527.70536,E,1,12,0.96,80.2,M,34.4,M,,*64
$GPGGA,062949.00,3428.70447,N,13527.70511,E,1,12,0.91,80.1,M,34.4,M,,*60
$GPGGA,062950.00,3428.70455,N,13527.70485,E,1,12,0.91,80.1,M,34.4,M,,*67
$GPGGA,062951.00,3428.70466,N,13527.70460,E,1,12,0.91,80.1,M,34.4,M,,*6D
$GPGGA,062952.00,3428.70476,N,13527.70438,E,1,12,0.91,80.1,M,34.4,M,,*62
$GPGGA,062953.00,3428.70487,N,13527.70418,E,1,12,0.91,80.2,M,34.4,M,,*6C
$GPGGA,062954.00,3428.70490,N,13527.70401,E,1,12,0.91,80.3,M,34.4,M,,*64
$GPGGA,062955.00,3428.70491,N,13527.70388,E,1,12,0.91,80.4,M,34.4,M,,*65
$GPGGA,062956.00,3428.70491,N,13527.70378,E,1,12,0.83,80.5,M,34.4,M,,*6B
$GPGGA,062957.00,3428.70490,N,13527.70370,E,1,12,0.83,80.6,M,34.4,M,,*60
$GPGGA,062958.00,3428.70491,N,13527.70364,E,1,12,0.91,80.8,M,34.4,M,,*66
$GPGGA,062959.00,3428.70494,N,13527.70359,E,1,12,0.83,81.0,M,34.4,M,,*66
$GPGGA,063000.00,3428.70495,N,13527.70354,E,1,12,0.83,81.2,M,34.4,M,,*6C
$GPGGA,063001.00,3428.70493,N,13527.70352,E,1,12,0.83,81.4,M,34.4,M,,*6B
$GPGGA,063002.00,3428.70493,N,13527.70349,E,1,12,0.83,81.6,M,34.4,M,,*60
$GPGGA,063003.00,3428.70496,N,13527.70347,E,1,12,0.83,81.8,M,34.4,M,,*64
$GPGGA,063004.00,3428.70492,N,13527.70347,E,1,12,0.83,82.0,M,34.4,M,,*6C
$GPGGA,063005.00,3428.70484,N,13527.70344,E,1,12,0.72,82.2,M,34.4,M,,*65
$GPGGA,063006.00,3428.70477,N,13527.70342,E,1,12,0.72,82.5,M,34.4,M,,*6B
$GPGGA,063007.00,3428.70472,N,13527.70340,E,1,12,0.72,82.8,M,34.4,M,,*60
$GPGGA,063008.00,3428.70468,N,13527.70340,E,1,12,0.72,83.1,M,34.4,M,,*6C
$GPGGA,063009.00,3428.70462,N,13527.70343,E,1,12,0.72,83.3,M,34.4,M,,*66
$GPGGA,063010.00,3428.70447,N,13527.70350,E,1,12,0.72,83.6,M,34.4,M,,*6E
$GPGGA,063011.00,3428.70440,N,13527.70351,E,1,12,0.72,83.7,M,34.4,M,,*68
$GPGGA,063012.00,3428.70431,N,13527.70395,E,1,12,0.93,83.8,M,34.4,M,,*65
$GPGGA,063013.00,3428.70470,N,13527.70510,E,1,12,1.08,83.9,M,34.4,M,,*68
$GPGGA,063014.00,3428.70550,N,13527.70704,E,1,12,1.27,83.8,M,34.4,M,,*67
$GPGGA,063015.00,3428.70642,N,13527.70974,E,1,12,0.99,83.8,M,34.4,M,,*6B
$GPGGA,063016.00,3428.70770,N,13527.71298,E,1,12,0.97,83.7,M,34.4,M,,*61
$GPGGA,063017.00,3428.70933,N,13527.71674,E,1,12,0.92,83.7,M,34.4,M,,*6A
$GPGGA,063018.00,3428.71088,N,13527.72089,E,1,12,0.99,83.6,M,34.4,M,,*60
$GPGGA,063019.00,3428.71236,N,13527.72534,E,1,12,1.20,83.5,M,34.4,M,,*65
$GPGGA,063020.00,3428.71353,N,13527.73010,E,1,12,1.71,83.6,M,34.4,M,,*68
$GPGGA,063021.00,3428.71429,N,13527.73522,E,1,12,0.92,83.5,M,34.4,M,,*68
$GPGGA,063022.00,3428.71453,N,13527.74041,E,1,12,0.99,83.6,M,34.4,M,,*69
$GPGGA,063023.00,3428.71441,N,13527.74538,E,1,11,0.99,83.5,M,34.4,M,,*60
$GPGGA,063024.00,3428.71409,N,13527.75017,E,1,11,0.99,83.4,M,34.4,M,,*63
$GPGGA,063025.00,3428.71382,N,13527.75482,E,1,12,0.96,83.3,M,34.4,M,,*65
$GPGGA,063026.00,3428.71354,N,13527.75936,E,1,12,1.21,83.3,M,34.4,M,,*62
$GPGGA,063027.00,3428.71337,N,13527.76383,E,1,09,2.94,82.9,M,34.4,M,,*6D
$GPGGA,063028.00,3428.71302,N,13527.76851,E,1,09,2.08,82.8,M,34.4,M,,*64
$GPGGA,063029.00,3428.71261,N,13527.77329,E,1,09,2.08,82.8,M,34.4,M,,*64
$GPGGA,063030.00,3428.71231,N,13527.77801,E,1,09,1.39,82.6,M,34.4,M,,*67
$GPGGA,063031.00,3428.71196,N,13527.78282,E,1,09,2.08,82.6,M,34.4,M,,*67
$GPGGA,063032.00,3428.71132,N,13527.78778,E,1,10,1.17,82.3,M,34.4,M,,*6A
$GPGGA,063033.00,3428.71085,N,13527.79251,E,1,10,1.17,82.2,M,34.4,M,,*68
$GPGGA,063034.00,3428.71063,N,13527.79688,E,1,11,1.03,82.3,M,34.4,M,,*62
$GPGGA,063035.00,3428.71028,N,13527.80069,E,1,11,1.17,82.2,M,34.4,M,,*67
$GPGGA,063036.00,3428.71017,N,13527.80348,E,1,11,1.11,81.8,M,34.4,M,,*67
$GPGGA,063037.00,3428.71002,N,13527.80530,E,1,11,1.17,81.6,M,34.4,M,,*63
$GPGGA,063038.00,3428.70992,N,13527.80611,E,1,11,1.11,81.5,M,34.4,M,,*68
$GPGGA,063039.00,3428.70988,N,13527.80623,E,1,11,0.91,81.5,M,34.4,M,,*6A
$GPGGA,063040.00,3428.70987,N,13527.80605,E,1,12,0.84,81.5,M,34.4,M,,*68
$GPGGA,063041.00,3428.70985,N,13527.80585,E,1,12,0.84,81.5,M,34.4,M,,*60
$GPGGA,063042.00,3428.70981,N,13527.80569,E,1,12,0.84,81.5,M,34.4,M,,*65
$GPGGA,063043.00,3428.70977,N,13527.80554,E,1,12,0.88,81.5,M,34.4,M,,*6F
$GPGGA,063044.00,3428.70973,N,13527.80541,E,1,12,0.88,81.5,M,34.4,M,,*68
$GPGGA,063045.00,3428.70967,N,13527.80528,E,1,12,0.88,81.5,M,34.4,M,,*63
$GPGGA,063046.00,3428.70962,N,13527.80516,E,1,12,0.88,81.6,M,34.4,M,,*6B
$GPGGA,063047.00,3428.70957,N,13527.80503,E,1,12,0.88,81.6,M,34.4,M,,*68
$GPGGA,063048.00,3428.70951,N,13527.80492,E,1,12,0.88,81.6,M,34.4,M,,*68
$GPGGA,063049.00,3428.70945,N,13527.80482,E,1,12,0.88,81.7,M,34.4,M,,*6C
$GPGGA,063050.00,3428.70940,N,13527.80473,E,1,12,0.88,81.7,M,34.4,M,,*6F
$GPGGA,063051.00,3428.70938,N,13527.80464,E,1,12,0.88,81.7,M,34.4,M,,*67
$GPGGA,063052.00,3428.70937,N,13527.80457,E,1,12,0.88,81.8,M,34.4,M,,*64
$GPGGA,063053.00,3428.70934,N,13527.80452,E,1,12,0.88,81.8,M,34.4,M,,*63
$GPGGA,063054.00,3428.70931,N,13527.80449,E,1,12,0.88,81.8,M,34.4,M,,*6B
$GPGGA,063055.00,3428.70928,N,13527.80447,E,1,12,0.88,81.9,M,34.4,M,,*6D
$GPGGA,063056.00,3428.70926,N,13527.80445,E,1,12,0.88,82.0,M,34.4,M,,*68
$GPGGA,063057.00,3428.70923,N,13527.80444,E,1,12,0.88,82.1,M,34.4,M,,*6C
$GPGGA,063058.00,3428.70920,N,13527.80446,E,1,12,0.88,82.2,M,34.4,M,,*61
$GPGGA,063059.00,3428.70921,N,13527.80445,E,1,12,0.73,82.2,M,34.4,M,,*66
$GPGGA,063100.00,3428.70922,N,13527.80443,E,1,12,0.73,82.3,M,34.4,M,,*6F
$GPGGA,063101.00,3428.70924,N,13527.80442,E,1,12,0.73,82.3,M,34.4,M,,*69
$GPGGA,063102.00,3428.70925,N,13527.80442,E,1,12,0.73,82.4,M,34.4,M,,*6C
$GPGGA,063103.00,3428.70926,N,13527.80441,E,1,12,0.73,82.5,M,34.4,M,,*6C
$GPGGA,063104.00,3428.70932,N,13527.80443,E,1,12,0.73,82.6,M,34.4,M,,*6F
$GPGGA,063105.00,3428.70930,N,13527.80469,E,1,12,0.88,82.7,M,34.4,M,,*61
$GPGGA,063106.00,3428.70924,N,13527.80551,E,1,12,0.78,82.8,M,34.4,M,,*6D
$GPGGA,063107.00,3428.70917,N,13527.80701,E,1,12,0.88,82.9,M,34.4,M,,*65
$GPGGA,063108.00,3428.70902,N,13527.80905,E,1,12,0.96,82.9,M,34.4,M,,*6B
$GPGGA,063109.00,3428.70883,N,13527.81145,E,1,12,0.88,83.0,M,34.4,M,,*68
$GPGGA,063110.00,3428.70864,N,13527.81418,E,1,12,0.96,83.0,M,34.4,M,,*6B
$GPGGA,063111.00,3428.70842,N,13527.81736,E,1,12,0.96,83.0,M,34.4,M,,*61
$GPGGA,063112.00,3428.70816,N,13527.82098,E,1,12,0.91,83.0,M,34.4,M,,*64
$GPGGA,063113.00,3428.70791,N,13527.82484,E,1,12,1.03,83.0,M,34.4,M,,*66
$GPGGA,063114.00,3428.70769,N,13527.82933,E,1,12,0.99,83.0,M,34.4,M,,*65
$GPGGA,063115.00,3428.70748,N,13527.83403,E,1,12,2.08,83.0,M,34.4,M,,*62
$GPGGA,063116.00,3428.70726,N,13527.83900,E,1,12,1.17,82.9,M,34.4,M,,*62
$GPGGA,063117.00,3428.70698,N,13527.84424,E,1,12,1.04,82.9,M,34.4,M,,*69
$GPGGA,063118.00,3428.70664,N,13527.84973,E,1,11,0.96,82.9,M,34.4,M,,*63
$GPGGA,063119.00,3428.70624,N,13527.85543,E,1,11,0.96,82.9,M,34.4,M,,*68
$GPGGA,063120.00,3428.70583,N,13527.86134,E,1,12,1.04,82.9,M,34.4,M,,*62
$GPGGA,063121.00,3428.70545,N,13527.86746,E,1,10,1.04,82.9,M,34.4,M,,*68
$GPGGA,063122.00,3428.70511,N,13527.87382,E,1,10,1.17,82.9,M,34.4,M,,*65
$GPGGA,063123.00,3428.70481,N,13527.88033,E,1,11,1.17,82.9,M,34.4,M,,*6B
$GPGGA,063124.00,3428.70439,N,13527.88694,E,1,09,1.04,82.9,M,34.4,M,,*6F
$GPGGA,063125.00,3428.70385,N,13527.89342,E,1,11,1.04,83.0,M,34.4,M,,*60
$GPGGA,063126.00,3428.70332,N,13527.89947,E,1,12,0.96,83.0,M,34.4,M,,*69
$GPGGA,063127.00,3428.70284,N,13527.90517,E,1,12,1.21,83.0,M,34.4,M,,*68
$GPGGA,063128.00,3428.70236,N,13527.91080,E,1,12,2.09,83.2,M,34.4,M,,*6F
$GPGGA,063129.00,3428.70196,N,13527.91653,E,1,09,2.09,83.2,M,34.4,M,,*65
$GPGGA,063130.00,3428.70177,N,13527.92245,E,1,09,1.17,83.2,M,34.4,M,,*6E
$GPGGA,063131.00,3428.70198,N,13527.92855,E,1,10,1.17,83.2,M,34.4,M,,*6D
$GPGGA,063132.00,3428.70252,N,13527.93483,E,1,10,1.17,83.3,M,34.4,M,,*6C
$GPGGA,063133.00,3428.70325,N,13527.94123,E,1,11,1.17,83.5,M,34.4,M,,*63
$GPGGA,063134.00,3428.70404,N,13527.94776,E,1,11,1.17,83.7,M,34.4,M,,*64
$GPGGA,063135.00,3428.70486,N,13527.95441,E,1,11,1.17,83.8,M,34.4,M,,*66
$GPGGA,063136.00,3428.70568,N,13527.96113,E,1,10,1.17,83.7,M,34.4,M,,*6B
$GPGGA,063137.00,3428.70648,N,13527.96788,E,1,11,1.17,83.6,M,34.4,M,,*6F
$GPGGA,063138.00,3428.70720,N,13527.97461,E,1,11,1.17,83.4,M,34.4,M,,*68
$GPGGA,063139.00,3428.70761,N,13527.98129,E,1,10,1.17,83.3,M,34.4,M,,*6C
$GPGGA,063140.00,3428.70753,N,13527.98799,E,1,11,1.17,83.2,M,34.4,M,,*6E
$GPGGA,063141.00,3428.70701,N,13527.99471,E,1,10,1.17,83.1,M,34.4,M,,*6E
$GPGGA,063142.00,3428.70625,N,13528.00137,E,1,10,1.17,83.0,M,34.4,M,,*63
$GPGGA,063143.00,3428.70536,N,13528.00792,E,1,10,1.17,82.9,M,34.4,M,,*62
$GPGGA,063144.00,3428.70430,N,13528.01424,E,1,10,1.17,82.9,M,34.4,M,,*6D
$GPGGA,063145.00,3428.70305,N,13528.02004,E,1,10,2.09,82.8,M,34.4,M,,*65
$GPGGA,063146.00,3428.70163,N,13528.02497,E,1,12,1.01,82.8,M,34.4,M,,*63
$GPGGA,063147.00,3428.70026,N,13528.02886,E,1,12,1.16,82.7,M,34.4,M,,*67
$GPGGA,063148.00,3428.69923,N,13528.03166,E,1,12,1.04,82.7,M,34.4,M,,*69
$GPGGA,063149.00,3428.69859,N,13528.03339,E,1,11,1.04,82.7,M,34.4,M,,*6F
$GPGGA,063150.00,3428.69829,N,13528.03424,E,1,11,1.01,82.6,M,34.4,M,,*6F
$GPGGA,063151.00,3428.69820,N,13528.03454,E,1,11,1.01,82.5,M,34.4,M,,*63
$GPGGA,063152.00,3428.69817,N,13528.03457,E,1,11,1.01,82.2,M,34.4,M,,*60
$GPGGA,063153.00,3428.69815,N,13528.03453,E,1,11,0.78,82.3,M,34.4,M,,*69
$GPGGA,063154.00,3428.69815,N,13528.03450,E,1,11,0.78,82.3,M,34.4,M,,*6D
$GPGGA,063155.00,3428.69814,N,13528.03447,E,1,11,0.78,82.3,M,34.4,M,,*6B
$GPGGA,063156.00,3428.69813,N,13528.03443,E,1,11,0.94,82.3,M,34.4,M,,*69
$GPGGA,063157.00,3428.69812,N,13528.03440,E,1,11,0.94,82.4,M,34.4,M,,*6D
$GPGGA,063158.00,3428.69808,N,13528.03435,E,1,11,0.94,82.5,M,34.4,M,,*6A
$GPGGA,063159.00,3428.69808,N,13528.03434,E,1,11,0.78,82.5,M,34.4,M,,*68
$GPGGA,063200.00,3428.69806,N,13528.03431,E,1,11,0.78,82.5,M,34.4,M,,*6C
$GPGGA,063201.00,3428.69807,N,13528.03429,E,1,11,0.78,82.5,M,34.4,M,,*65
$GPGGA,063202.00,3428.69805,N,13528.03426,E,1,11,0.78,82.5,M,34.4,M,,*6B
$GPGGA,063203.00,3428.69805,N,13528.03424,E,1,11,0.94,82.5,M,34.4,M,,*6A
$GPGGA,063204.00,3428.69804,N,13528.03421,E,1,11,0.94,82.6,M,34.4,M,,*6A
$GPGGA,063205.00,3428.69803,N,13528.03419,E,1,11,0.78,82.6,M,34.4,M,,*65
$GPGGA,063206.00,3428.69804,N,13528.03417,E,1,11,0.78,82.6,M,34.4,M,,*6F
$GPGGA,063207.00,3428.69804,N,13528.03416,E,1,11,0.78,82.6,M,34.4,M,,*6F
$GPGGA,063208.00,3428.69807,N,13528.03424,E,1,11,0.78,82.0,M,34.4,M,,*64
$GPGGA,063209.00,3428.69808,N,13528.03433,E,1,11,0.78,81.6,M,34.4,M,,*69
$GPGGA,063210.00,3428.69808,N,13528.03445,E,1,11,0.78,81.0,M,34.4,M,,*66
$GPGGA,063211.00,3428.69806,N,13528.03454,E,1,11,0.94,80.4,M,34.4,M,,*6E
$GPGGA,063212.00,3428.69806,N,13528.03462,E,1,11,0.78,79.9,M,34.4,M,,*61
$GPGGA,063213.00,3428.69806,N,13528.03467,E,1,11,0.78,79.5,M,34.4,M,,*69
$GPGGA,063214.00,3428.69807,N,13528.03473,E,1,11,0.78,79.1,M,34.4,M,,*6E
$GPGGA,063215.00,3428.69809,N,13528.03477,E,1,11,0.78,78.8,M,34.4,M,,*6D
$GPGGA,063216.00,3428.69810,N,13528.03482,E,1,12,0.77,78.5,M,34.4,M,,*6D
$GPGGA,063217.00,3428.69809,N,13528.03485,E,1,12,0.77,78.2,M,34.4,M,,*64
$GPGGA,063218.00,3428.69810,N,13528.03487,E,1,12,0.77,77.9,M,34.4,M,,*65
$GPGGA,063219.00,3428.69812,N,13528.03492,E,1,12,0.77,77.7,M,34.4,M,,*6C
$GPGGA,063220.00,3428.69813,N,13528.03494,E,1,12,0.86,77.4,M,34.4,M,,*6C
$GPGGA,063221.00,3428.69815,N,13528.03497,E,1,12,0.86,77.2,M,34.4,M,,*6E
$GPGGA,063222.00,3428.69816,N,13528.03499,E,1,12,0.86,77.0,M,34.4,M,,*62
$GPGGA,063223.00,3428.69818,N,13528.03501,E,1,12,0.86,76.9,M,34.4,M,,*65
$GPGGA,063224.00,3428.69821,N,13528.03503,E,1,12,0.86,76.7,M,34.4,M,,*64
$GPGGA,063225.00,3428.69824,N,13528.03506,E,1,12,0.86,76.5,M,34.4,M,,*67
$GPGGA,063226.00,3428.69827,N,13528.03508,E,1,12,0.86,76.4,M,34.4,M,,*68
$GPGGA,063227.00,3428.69830,N,13528.03510,E,1,12,0.85,76.3,M,34.4,M,,*62
$GPGGA,063228.00,3428.69831,N,13528.03513,E,1,12,0.86,76.1,M,34.4,M,,*6E
$GPGGA,063229.00,3428.69832,N,13528.03516,E,1,12,0.85,76.0,M,34.4,M,,*6B
$GPGGA,063230.00,3428.69834,N,13528.03518,E,1,12,0.86,75.9,M,34.4,M,,*62
$GPGGA,063231.00,3428.69835,N,13528.03520,E,1,12,0.86,75.8,M,34.4,M,,*68
$GPGGA,063232.00,3428.69837,N,13528.03522,E,1,12,0.86,75.7,M,34.4,M,,*64
$GPGGA,063233.00,3428.69838,N,13528.03522,E,1,12,0.85,75.6,M,34.4,M,,*68
$GPGGA,063234.00,3428.69837,N,13528.03524,E,1,12,0.85,75.5,M,34.4,M,,*65
$GPGGA,063235.00,3428.69837,N,13528.03527,E,1,12,0.86,75.4,M,34.4,M,,*65
$GPGGA,063236.00,3428.69838,N,13528.03529,E,1,12,0.85,75.3,M,34.4,M,,*63
$GPGGA,063237.00,3428.69836,N,13528.03530,E,1,12,0.85,75.2,M,34.4,M,,*65
$GPGGA,063238.00,3428.69829,N,13528.03543,E,1,12,0.85,75.2,M,34.4,M,,*60
$GPGGA,063239.00,3428.69804,N,13528.03605,E,1,12,0.86,75.3,M,34.4,M,,*6D
$GPGGA,063240.00,3428.69751,N,13528.03746,E,1,12,0.95,75.3,M,34.4,M,,*68
$GPGGA,063241.00,3428.69678,N,13528.03951,E,1,12,0.95,75.4,M,34.4,M,,*6C
$GPGGA,063242.00,3428.69596,N,13528.04176,E,1,12,0.93,75.4,M,34.4,M,,*60
$GPGGA,063243.00,3428.69513,N,13528.04405,E,1,12,0.98,75.4,M,34.4,M,,*66
$GPGGA,063244.00,3428.69465,N,13528.04646,E,1,12,0.95,75.5,M,34.4,M,,*68
$GPGGA,063245.00,3428.69500,N,13528.04880,E,1,12,0.92,75.5,M,34.4,M,,*68
$GPGGA,063246.00,3428.69629,N,13528.05057,E,1,12,0.96,75.5,M,34.4,M,,*64
$GPGGA,063247.00,3428.69819,N,13528.05159,E,1,12,1.03,75.5,M,34.4,M,,*6A
$GPGGA,063248.00,3428.70057,N,13528.05213,E,1,12,1.15,75.6,M,34.4,M,,*66
$GPGGA,063249.00,3428.70337,N,13528.05261,E,1,12,0.98,75.6,M,34.4,M,,*63
$GPGGA,063250.00,3428.70658,N,13528.05316,E,1,12,1.53,75.8,M,34.4,M,,*6E
$GPGGA,063251.00,3428.71043,N,13528.05366,E,1,12,0.92,75.7,M,34.4,M,,*66
$GPGGA,063252.00,3428.71461,N,13528.05425,E,1,12,0.92,75.5,M,34.4,M,,*63
$GPGGA,063253.00,3428.71904,N,13528.05494,E,1,12,1.04,75.5,M,34.4,M,,*68
$GPGGA,063254.00,3428.72393,N,13528.05560,E,1,12,1.06,75.8,M,34.4,M,,*6D
$GPGGA,063255.00,3428.72891,N,13528.05617,E,1,12,0.96,75.6,M,34.4,M,,*60
$GPGGA,063256.00,3428.73386,N,13528.05659,E,1,12,1.23,75.6,M,34.4,M,,*6A
$GPGGA,063257.00,3428.73875,N,13528.05690,E,1,12,0.92,75.7,M,34.4,M,,*63
$GPGGA,063258.00,3428.74380,N,13528.05712,E,1,12,0.92,75.4,M,34.4,M,,*62
$GPGGA,063259.00,3428.74904,N,13528.05728,E,1,12,0.92,75.4,M,34.4,M,,*6C
$GPGGA,063300.00,3428.75448,N,13528.05733,E,1,12,1.02,75.6,M,34.4,M,,*65
$GPGGA,063301.00,3428.76010,N,13528.05723,E,1,12,1.02,75.7,M,34.4,M,,*6E
$GPGGA,063302.00,3428.76583,N,13528.05681,E,1,12,1.03,75.8,M,34.4,M,,*65
$GPGGA,063303.00,3428.77155,N,13528.05622,E,1,12,1.60,75.7,M,34.4,M,,*69
$GPGGA,063304.00,3428.77725,N,13528.05542,E,1,12,1.72,75.8,M,34.4,M,,*66
$GPGGA,063305.00,3428.78295,N,13528.05456,E,1,11,1.62,75.8,M,34.4,M,,*60
$GPGGA,063306.00,3428.78861,N,13528.05370,E,1,12,1.25,75.9,M,34.4,M,,*60
$GPGGA,063307.00,3428.79436,N,13528.05281,E,1,12,1.70,75.9,M,34.4,M,,*61
$GPGGA,063308.00,3428.80013,N,13528.05181,E,1,12,1.15,75.6,M,34.4,M,,*64
$GPGGA,063309.00,3428.80590,N,13528.05087,E,1,12,1.15,75.4,M,34.4,M,,*6E
$GPGGA,063310.00,3428.81161,N,13528.04999,E,1,12,1.03,75.4,M,34.4,M,,*6D
$GPGGA,063311.00,3428.81723,N,13528.04906,E,1,12,0.92,75.4,M,34.4,M,,*63
$GPGGA,063312.00,3428.82286,N,13528.04810,E,1,12,0.91,75.4,M,34.4,M,,*6C
$GPGGA,063313.00,3428.82837,N,13528.04718,E,1,12,0.92,75.4,M,34.4,M,,*69
$GPGGA,063314.00,3428.83361,N,13528.04636,E,1,12,0.92,75.5,M,34.4,M,,*6B
$GPGGA,063315.00,3428.83848,N,13528.04557,E,1,12,1.03,75.6,M,34.4,M,,*64
$GPGGA,063316.00,3428.84281,N,13528.04482,E,1,12,1.11,75.7,M,34.4,M,,*64
$GPGGA,063317.00,3428.84664,N,13528.04408,E,1,12,0.98,75.7,M,34.4,M,,*68
$GPGGA,063318.00,3428.84988,N,13528.04359,E,1,12,1.11,75.8,M,34.4,M,,*66
$GPGGA,063319.00,3428.85248,N,13528.04320,E,1,12,1.03,75.9,M,34.4,M,,*6D
$GPGGA,063320.00,3428.85450,N,13528.04291,E,1,12,1.02,76.0,M,34.4,M,,*68
$GPGGA,063321.00,3428.85602,N,13528.04268,E,1,12,1.03,76.0,M,34.4,M,,*6B
$GPGGA,063322.00,3428.85709,N,13528.04262,E,1,12,0.96,75.7,M,34.4,M,,*61
$GPGGA,063323.00,3428.85759,N,13528.04264,E,1,12,0.79,75.5,M,34.4,M,,*60
$GPGGA,063324.00,3428.85774,N,13528.04268,E,1,12,0.96,75.4,M,34.4,M,,*64
$GPGGA,063325.00,3428.85775,N,13528.04267,E,1,12,0.96,75.5,M,34.4,M,,*6A
$GPGGA,063326.00,3428.85770,N,13528.04267,E,1,12,0.79,75.6,M,34.4,M,,*6E
$GPGGA,063327.00,3428.85766,N,13528.04269,E,1,12,0.83,75.6,M,34.4,M,,*63
$GPGGA,063328.00,3428.85763,N,13528.04270,E,1,12,0.92,75.5,M,34.4,M,,*62
$GPGGA,063329.00,3428.85762,N,13528.04269,E,1,12,0.92,75.6,M,34.4,M,,*69
$GPGGA,063330.00,3428.85758,N,13528.04270,E,1,12,0.96,75.5,M,34.4,M,,*67
$GPGGA,063331.00,3428.85765,N,13528.04272,E,1,12,0.92,75.5,M,34.4,M,,*6E
$GPGGA,063332.00,3428.85792,N,13528.04274,E,1,12,0.92,75.5,M,34.4,M,,*63
$GPGGA,063333.00,3428.85863,N,13528.04277,E,1,12,1.02,76.0,M,34.4,M,,*6E
$GPGGA,063334.00,3428.85955,N,13528.04260,E,1,12,0.91,76.1,M,34.4,M,,*61
$GPGGA,063335.00,3428.86092,N,13528.04234,E,1,12,0.92,76.1,M,34.4,M,,*63
$GPGGA,063336.00,3428.86276,N,13528.04205,E,1,12,1.03,76.2,M,34.4,M,,*60
$GPGGA,063337.00,3428.86498,N,13528.04172,E,1,12,0.96,76.3,M,34.4,M,,*68
$GPGGA,063338.00,3428.86768,N,13528.04139,E,1,12,0.96,76.3,M,34.4,M,,*64
$GPGGA,063339.00,3428.87068,N,13528.04083,E,1,12,0.92,76.4,M,34.4,M,,*60
$GPGGA,063340.00,3428.87407,N,13528.04037,E,1,12,0.92,76.3,M,34.4,M,,*6B
$GPGGA,063341.00,3428.87773,N,13528.03985,E,1,12,0.96,76.1,M,34.4,M,,*6B
$GPGGA,063342.00,3428.88153,N,13528.03923,E,1,12,1.03,76.2,M,34.4,M,,*61
$GPGGA,063343.00,3428.88563,N,13528.03850,E,1,12,0.83,76.0,M,34.4,M,,*69
$GPGGA,063344.00,3428.88985,N,13528.03780,E,1,12,0.92,76.1,M,34.4,M,,*69
$GPGGA,063345.00,3428.89424,N,13528.03704,E,1,12,1.03,76.2,M,34.4,M,,*69
$GPGGA,063346.00,3428.89884,N,13528.03626,E,1,12,1.03,76.3,M,34.4,M,,*6C
$GPGGA,063347.00,3428.90377,N,13528.03553,E,1,12,1.02,76.6,M,34.4,M,,*67
$GPGGA,063348.00,3428.90875,N,13528.03476,E,1,12,1.03,76.7,M,34.4,M,,*67
$GPGGA,063349.00,3428.91389,N,13528.03382,E,1,12,1.03,76.7,M,34.4,M,,*63
$GPGGA,063350.00,3428.91922,N,13528.03300,E,1,12,1.03,76.7,M,34.4,M,,*6A
$GPGGA,063351.00,3428.92474,N,13528.03217,E,1,12,1.02,76.8,M,34.4,M,,*6F
$GPGGA,063352.00,3428.93032,N,13528.03130,E,1,12,1.03,76.8,M,34.4,M,,*6C
$GPGGA,063353.00,3428.93595,N,13528.03040,E,1,12,1.03,76.9,M,34.4,M,,*62
$GPGGA,063354.00,3428.94160,N,13528.02953,E,1,12,1.03,76.9,M,34.4,M,,*66
$GPGGA,063355.00,3428.94721,N,13528.02868,E,1,12,1.03,77.0,M,34.4,M,,*65
$GPGGA,063356.00,3428.95291,N,13528.02769,E,1,12,0.92,76.6,M,34.4,M,,*69
$GPGGA,063357.00,3428.95845,N,13528.02686,E,1,12,1.02,76.7,M,34.4,M,,*62
$GPGGA,063358.00,3428.96398,N,13528.02601,E,1,12,1.03,76.8,M,34.4,M,,*64
$GPGGA,063359.00,3428.96955,N,13528.02514,E,1,12,1.03,76.8,M,34.4,M,,*69
$GPGGA,063400.00,3428.97517,N,13528.02426,E,1,12,1.03,76.9,M,34.4,M,,*68
$GPGGA,063401.00,3428.98089,N,13528.02335,E,1,12,1.03,76.9,M,34.4,M,,*61
$GPGGA,063402.00,3428.98670,N,13528.02244,E,1,12,1.03,77.0,M,34.4,M,,*6D
$GPGGA,063403.00,3428.99257,N,13528.02149,E,1,12,0.92,76.9,M,34.4,M,,*63
$GPGGA,063404.00,3428.99855,N,13528.02044,E,1,12,0.99,76.7,M,34.4,M,,*65
$GPGGA,063405.00,3429.00445,N,13528.01951,E,1,12,1.02,76.8,M,34.4,M,,*6A
$GPGGA,063406.00,3429.01041,N,13528.01860,E,1,12,1.02,76.9,M,34.4,M,,*6A
$GPGGA,063407.00,3429.01658,N,13528.01770,E,1,12,0.79,76.3,M,34.4,M,,*6C
$GPGGA,063408.00,3429.02268,N,13528.01674,E,1,12,1.02,76.3,M,34.4,M,,*6F
$GPGGA,063409.00,3429.02886,N,13528.01580,E,1,12,1.02,76.2,M,34.4,M,,*6D
$GPGGA,063410.00,3429.03499,N,13528.01484,E,1,12,1.23,76.0,M,34.4,M,,*62
$GPGGA,063411.00,3429.04114,N,13528.01387,E,1,12,0.92,75.7,M,34.4,M,,*6F
$GPGGA,063412.00,3429.04723,N,13528.01301,E,1,12,0.96,75.3,M,34.4,M,,*60
$GPGGA,063413.00,3429.05325,N,13528.01210,E,1,12,1.02,75.1,M,34.4,M,,*6D
$GPGGA,063414.00,3429.05922,N,13528.01120,E,1,12,1.03,75.0,M,34.4,M,,*67
$GPGGA,063415.00,3429.06516,N,13528.01029,E,1,12,1.03,74.8,M,34.4,M,,*6F
$GPGGA,063416.00,3429.07107,N,13528.00934,E,1,12,1.03,74.6,M,34.4,M,,*63
$GPGGA,063417.00,3429.07696,N,13528.00841,E,1,12,1.02,74.5,M,34.4,M,,*6C
$GPGGA,063418.00,3429.08282,N,13528.00750,E,1,12,1.03,74.4,M,34.4,M,,*62
$GPGGA,063419.00,3429.08867,N,13528.00663,E,1,12,1.02,74.2,M,34.4,M,,*64
$GPGGA,063420.00,3429.09450,N,13528.00572,E,1,12,1.03,74.0,M,34.4,M,,*67
$GPGGA,063421.00,3429.10037,N,13528.00470,E,1,12,1.11,73.9,M,34.4,M,,*65
$GPGGA,063422.00,3429.10634,N,13528.00365,E,1,12,1.03,73.8,M,34.4,M,,*62
$GPGGA,063423.00,3429.11237,N,13528.00258,E,1,12,1.03,73.8,M,34.4,M,,*6A
$GPGGA,063424.00,3429.11842,N,13528.00157,E,1,12,1.03,73.7,M,34.4,M,,*66
$GPGGA,063425.00,3429.12435,N,13528.00065,E,1,12,1.45,73.8,M,34.4,M,,*65
$GPGGA,063426.00,3429.13017,N,13527.99967,E,1,12,1.03,73.7,M,34.4,M,,*6A
$GPGGA,063427.00,3429.13584,N,13527.99867,E,1,12,1.03,73.8,M,34.4,M,,*6A
$GPGGA,063428.00,3429.14137,N,13527.99766,E,1,12,0.92,73.2,M,34.4,M,,*63
$GPGGA,063429.00,3429.14654,N,13527.99686,E,1,12,1.02,73.2,M,34.4,M,,*67
$GPGGA,063430.00,3429.15139,N,13527.99614,E,1,12,1.02,73.3,M,34.4,M,,*68
$GPGGA,063431.00,3429.15595,N,13527.99551,E,1,12,1.02,73.4,M,34.4,M,,*6E
$GPGGA,063432.00,3429.16035,N,13527.99487,E,1,12,1.23,73.4,M,34.4,M,,*68
$GPGGA,063433.00,3429.16477,N,13527.99426,E,1,12,1.23,73.5,M,34.4,M,,*61
$GPGGA,063434.00,3429.16927,N,13527.99369,E,1,12,1.03,73.4,M,34.4,M,,*61
$GPGGA,063435.00,3429.17383,N,13527.99309,E,1,12,1.03,73.3,M,34.4,M,,*64
$GPGGA,063436.00,3429.17849,N,13527.99241,E,1,12,1.03,73.3,M,34.4,M,,*67
$GPGGA,063437.00,3429.18330,N,13527.99170,E,1,12,1.03,73.2,M,34.4,M,,*6C
$GPGGA,063438.00,3429.18830,N,13527.99098,E,1,12,1.03,73.1,M,34.4,M,,*6C
$GPGGA,063439.00,3429.19350,N,13527.99024,E,1,12,1.02,73.1,M,34.4,M,,*67
$GPGGA,063440.00,3429.19883,N,13527.98946,E,1,12,1.02,72.9,M,34.4,M,,*69
$GPGGA,063441.00,3429.20428,N,13527.98857,E,1,12,1.03,72.8,M,34.4,M,,*6E
$GPGGA,063442.00,3429.20990,N,13527.98744,E,1,12,0.85,72.1,M,34.4,M,,*68
$GPGGA,063443.00,3429.21546,N,13527.98637,E,1,12,0.85,71.6,M,34.4,M,,*6E
$GPGGA,063444.00,3429.22089,N,13527.98542,E,1,12,1.02,71.5,M,34.4,M,,*60
$GPGGA,063445.00,3429.22641,N,13527.98440,E,1,12,0.89,71.0,M,34.4,M,,*67
$GPGGA,063446.00,3429.23167,N,13527.98355,E,1,12,0.92,71.0,M,34.4,M,,*6F
$GPGGA,063447.00,3429.23701,N,13527.98269,E,1,12,0.82,70.8,M,34.4,M,,*6E
$GPGGA,063448.00,3429.24213,N,13527.98193,E,1,12,0.91,71.0,M,34.4,M,,*6D
$GPGGA,063449.00,3429.24702,N,13527.98122,E,1,12,0.91,71.0,M,34.4,M,,*63
$GPGGA,063450.00,3429.25159,N,13527.98054,E,1,12,0.91,71.1,M,34.4,M,,*63
$GPGGA,063451.00,3429.25597,N,13527.97982,E,1,12,0.91,70.8,M,34.4,M,,*61
$GPGGA,063452.00,3429.26000,N,13527.97918,E,1,12,0.89,70.7,M,34.4,M,,*6F
$GPGGA,063453.00,3429.26365,N,13527.97861,E,1,12,0.82,70.6,M,34.4,M,,*6B
$GPGGA,063454.00,3429.26692,N,13527.97814,E,1,12,0.99,70.4,M,34.4,M,,*6B
$GPGGA,063455.00,3429.26974,N,13527.97772,E,1,12,1.09,70.4,M,34.4,M,,*6A
$GPGGA,063456.00,3429.27203,N,13527.97743,E,1,12,0.82,70.3,M,34.4,M,,*64
$GPGGA,063457.00,3429.27386,N,13527.97728,E,1,12,0.77,69.7,M,34.4,M,,*62
$GPGGA,063458.00,3429.27497,N,13527.97718,E,1,12,0.77,69.3,M,34.4,M,,*6D
$GPGGA,063459.00,3429.27536,N,13527.97712,E,1,12,0.77,69.0,M,34.4,M,,*6F
$GPGGA,063500.00,3429.27535,N,13527.97712,E,1,12,0.72,68.8,M,34.4,M,,*6D
$GPGGA,063501.00,3429.27526,N,13527.97710,E,1,12,0.72,68.7,M,34.4,M,,*63
$GPGGA,063502.00,3429.27516,N,13527.97707,E,1,12,0.72,68.6,M,34.4,M,,*64
$GPGGA,063503.00,3429.27513,N,13527.97713,E,1,12,0.72,68.5,M,34.4,M,,*66
$GPGGA,063504.00,3429.27525,N,13527.97717,E,1,12,0.72,68.4,M,34.4,M,,*61
$GPGGA,063505.00,3429.27557,N,13527.97710,E,1,12,0.77,68.4,M,34.4,M,,*67
$GPGGA,063506.00,3429.27635,N,13527.97699,E,1,12,0.77,68.2,M,34.4,M,,*65
$GPGGA,063507.00,3429.27771,N,13527.97678,E,1,12,0.77,67.9,M,34.4,M,,*6E
$GPGGA,063508.00,3429.27956,N,13527.97641,E,1,12,0.85,67.8,M,34.4,M,,*6C
$GPGGA,063509.00,3429.28199,N,13527.97591,E,1,12,0.92,67.8,M,34.4,M,,*61
$GPGGA,063510.00,3429.28499,N,13527.97522,E,1,12,0.89,67.8,M,34.4,M,,*6E
$GPGGA,063511.00,3429.28848,N,13527.97435,E,1,12,0.89,67.8,M,34.4,M,,*68
$GPGGA,063512.00,3429.29234,N,13527.97341,E,1,12,0.72,67.5,M,34.4,M,,*66
$GPGGA,063513.00,3429.29659,N,13527.97250,E,1,12,0.77,67.1,M,34.4,M,,*68
$GPGGA,063514.00,3429.30103,N,13527.97166,E,1,12,0.91,67.0,M,34.4,M,,*60
$GPGGA,063515.00,3429.30571,N,13527.97082,E,1,12,0.77,66.7,M,34.4,M,,*65
$GPGGA,063516.00,3429.31027,N,13527.97013,E,1,12,0.85,66.4,M,34.4,M,,*67
$GPGGA,063517.00,3429.31462,N,13527.96972,E,1,12,0.82,66.3,M,34.4,M,,*6C
$GPGGA,063518.00,3429.31841,N,13527.96973,E,1,12,0.82,66.2,M,34.4,M,,*6E
$GPGGA,063519.00,3429.32150,N,13527.96999,E,1,12,0.91,66.2,M,34.4,M,,*63
$GPGGA,063520.00,3429.32376,N,13527.97025,E,1,12,0.82,66.1,M,34.4,M,,*61
$GPGGA,063521.00,3429.32501,N,13527.97042,E,1,12,0.82,66.2,M,34.4,M,,*64
$GPGGA,063522.00,3429.32533,N,13527.97051,E,1,12,0.82,66.2,M,34.4,M,,*64
$GPGGA,063523.00,3429.32519,N,13527.97053,E,1,12,0.82,66.2,M,34.4,M,,*6F
$GPGGA,063524.00,3429.32495,N,13527.97055,E,1,12,0.82,66.3,M,34.4,M,,*6A
$GPGGA,063525.00,3429.32473,N,13527.97058,E,1,12,0.82,66.4,M,34.4,M,,*69
