$GPGGA,055650.00,3435.44930,N,13530.77418,E,2,09,0.95,11.9,M,34.2,M,,0000*67
$GPGGA,055651.00,3435.44905,N,13530.77396,E,2,09,0.95,11.6,M,34.2,M,,0000*6E
$GPGGA,055652.00,3435.44889,N,13530.77380,E,2,09,0.95,11.4,M,34.2,M,,0000*6D
$GPGGA,055653.00,3435.44891,N,13530.77395,E,2,09,0.95,11.3,M,34.2,M,,0000*66
$GPGGA,055654.00,3435.44895,N,13530.77415,E,2,09,0.95,11.1,M,34.2,M,,0000*68
$GPGGA,055655.00,3435.44896,N,13530.77423,E,2,09,0.95,10.9,M,34.2,M,,0000*66
$GPGGA,055656.00,3435.44894,N,13530.77430,E,2,09,0.95,10.7,M,34.2,M,,0000*6B
$GPGGA,055657.00,3435.44892,N,13530.77430,E,2,09,0.95,10.6,M,34.2,M,,0000*6D
$GPGGA,055658.00,3435.44890,N,13530.77435,E,2,09,0.95,10.5,M,34.2,M,,0000*66
$GPGGA,055659.00,3435.44887,N,13530.77438,E,2,09,0.95,10.5,M,34.2,M,,0000*6C
$GPGGA,055700.00,3435.44883,N,13530.77439,E,2,09,0.95,10.5,M,34.2,M,,0000*64
$GPGGA,055701.00,3435.44883,N,13530.77442,E,2,09,0.95,10.4,M,34.2,M,,0000*68
$GPGGA,055702.00,3435.44884,N,13530.77441,E,2,09,0.95,10.2,M,34.2,M,,0000*69
$GPGGA,055703.00,3435.44886,N,13530.77438,E,2,09,0.95,10.1,M,34.2,M,,0000*67
$GPGGA,055704.00,3435.44885,N,13530.77437,E,2,09,0.95,10.0,M,34.2,M,,0000*6D
$GPGGA,055705.00,3435.44884,N,13530.77435,E,2,09,0.95,9.9,M,34.2,M,,0000*5E
$GPGGA,055706.00,3435.44883,N,13530.77435,E,2,09,0.95,9.8,M,34.2,M,,0000*5B
$GPGGA,055707.00,3435.44882,N,13530.77435,E,2,09,0.95,9.8,M,34.2,M,,0000*5B
$GPGGA,055708.00,3435.44880,N,13530.77437,E,2,09,0.95,9.7,M,34.2,M,,0000*5B
$GPGGA,055709.00,3435.44880,N,13530.77439,E,2,09,0.95,9.7,M,34.2,M,,0000*54
$GPGGA,055710.00,3435.44882,N,13530.77440,E,2,09,0.95,9.7,M,34.2,M,,0000*50
$GPGGA,055711.00,3435.44883,N,13530.77441,E,2,09,0.95,9.7,M,34.2,M,,0000*51
$GPGGA,055712.00,3435.44885,N,13530.77441,E,2,09,0.95,9.8,M,34.2,M,,0000*5B
$GPGGA,055713.00,3435.44886,N,13530.77438,E,2,09,0.95,9.9,M,34.2,M,,0000*56
$GPGGA,055714.00,3435.44887,N,13530.77435,E,2,09,0.95,9.9,M,34.2,M,,0000*5D
$GPGGA,055715.00,3435.44888,N,13530.77433,E,2,09,0.95,9.9,M,34.2,M,,0000*55
$GPGGA,055716.00,3435.44890,N,13530.77435,E,2,09,0.95,9.9,M,34.2,M,,0000*59
$GPGGA,055717.00,3435.44892,N,13530.77436,E,2,09,0.95,9.9,M,34.2,M,,0000*59
$GPGGA,055718.00,3435.44895,N,13530.77438,E,2,09,0.95,9.9,M,34.2,M,,0000*5F
$GPGGA,055719.00,3435.44895,N,13530.77443,E,2,09,0.95,9.9,M,34.2,M,,0000*52
$GPGGA,055720.00,3435.44894,N,13530.77447,E,2,09,0.95,10.0,M,34.2,M,,0000*6C
$GPGGA,055721.00,3435.44891,N,13530.77450,E,2,09,0.95,10.2,M,34.2,M,,0000*6C
$GPGGA,055722.00,3435.44890,N,13530.77453,E,2,09,0.95,10.2,M,34.2,M,,0000*6D
$GPGGA,055723.00,3435.44888,N,13530.77453,E,2,09,0.95,10.2,M,34.2,M,,0000*65
$GPGGA,055724.00,3435.44886,N,13530.77454,E,2,09,0.95,10.3,M,34.2,M,,0000*6A
$GPGGA,055725.00,3435.44883,N,13530.77454,E,2,09,0.95,10.3,M,34.2,M,,0000*6E
$GPGGA,055726.00,3435.44879,N,13530.77454,E,2,09,0.95,10.4,M,34.2,M,,0000*6F
$GPGGA,055727.00,3435.44877,N,13530.77454,E,2,09,0.95,10.3,M,34.2,M,,0000*67
$GPGGA,055728.00,3435.44875,N,13530.77455,E,2,09,0.95,10.3,M,34.2,M,,0000*6B
$GPGGA,055729.00,3435.44873,N,13530.77455,E,2,09,0.95,10.3,M,34.2,M,,0000*6C
$GPGGA,055730.00,3435.44872,N,13530.77455,E,2,09,0.95,10.2,M,34.2,M,,0000*64
$GPGGA,055731.00,3435.44872,N,13530.77457,E,2,09,0.95,10.1,M,34.2,M,,0000*64
$GPGGA,055732.00,3435.44871,N,13530.77458,E,2,09,0.95,10.1,M,34.2,M,,0000*6B
$GPGGA,055733.00,3435.44870,N,13530.77459,E,2,09,0.95,10.1,M,34.2,M,,0000*6A
$GPGGA,055734.00,3435.44870,N,13530.77460,E,2,09,0.95,10.0,M,34.2,M,,0000*66
$GPGGA,055735.00,3435.44872,N,13530.77462,E,2,09,0.95,9.9,M,34.2,M,,0000*56
$GPGGA,055736.00,3435.44873,N,13530.77464,E,2,09,0.95,9.9,M,34.2,M,,0000*52
$GPGGA,055737.00,3435.44875,N,13530.77463,E,2,09,0.95,9.9,M,34.2,M,,0000*52
$GPGGA,055738.00,3435.44875,N,13530.77461,E,2,09,0.95,9.9,M,34.2,M,,0000*5F
$GPGGA,055739.00,3435.44874,N,13530.77459,E,2,09,0.95,9.9,M,34.2,M,,0000*54
$GPGGA,055740.00,3435.44873,N,13530.77456,E,2,09,0.95,9.9,M,34.2,M,,0000*52
$GPGGA,055741.00,3435.44872,N,13530.77454,E,2,09,0.95,9.9,M,34.2,M,,0000*50
$GPGGA,055742.00,3435.44871,N,13530.77456,E,2,09,0.95,9.9,M,34.2,M,,0000*52
$GPGGA,055743.00,3435.44870,N,13530.77455,E,2,09,0.95,9.8,M,34.2,M,,0000*50
$GPGGA,055744.00,3435.44867,N,13530.77451,E,2,09,0.95,9.6,M,34.2,M,,0000*5B
$GPGGA,055745.00,3435.44851,N,13530.77435,E,2,09,0.95,9.6,M,34.2,M,,0000*5D
$GPGGA,055746.00,3435.44836,N,13530.77404,E,2,09,0.95,9.7,M,34.2,M,,0000*5C
$GPGGA,055747.00,3435.44819,N,13530.77372,E,2,09,0.95,9.7,M,34.2,M,,0000*56
$GPGGA,055748.00,3435.44804,N,13530.77340,E,2,09,0.95,9.7,M,34.2,M,,0000*54
$GPGGA,055749.00,3435.44786,N,13530.77304,E,2,09,0.95,9.7,M,34.2,M,,0000*50
$GPGGA,055750.00,3435.44769,N,13530.77270,E,2,09,0.95,9.7,M,34.2,M,,0000*5B
$GPGGA,055751.00,3435.44749,N,13530.77234,E,2,09,0.95,9.7,M,34.2,M,,0000*58
$GPGGA,055752.00,3435.44729,N,13530.77193,E,2,09,0.95,9.8,M,34.2,M,,0000*5C
$GPGGA,055753.00,3435.44712,N,13530.77153,E,2,09,0.95,9.8,M,34.2,M,,0000*59
$GPGGA,055754.00,3435.44691,N,13530.77118,E,2,09,0.95,9.8,M,34.2,M,,0000*5B
$GPGGA,055755.00,3435.44670,N,13530.77078,E,2,09,0.95,9.9,M,34.2,M,,0000*53
$GPGGA,055756.00,3435.44652,N,13530.77038,E,2,09,0.95,10.0,M,34.2,M,,0000*65
$GPGGA,055757.00,3435.44633,N,13530.76997,E,2,09,0.95,10.0,M,34.2,M,,0000*6E
$GPGGA,055758.00,3435.44610,N,13530.76962,E,2,09,0.95,10.1,M,34.2,M,,0000*6B
$GPGGA,055759.00,3435.44592,N,13530.76925,E,2,09,0.95,10.1,M,34.2,M,,0000*60
$GPGGA,055800.00,3435.44575,N,13530.76889,E,2,09,0.95,10.1,M,34.2,M,,0000*6D
$GPGGA,055801.00,3435.44555,N,13530.76854,E,2,09,0.95,10.2,M,34.2,M,,0000*6D
$GPGGA,055802.00,3435.44533,N,13530.76813,E,2,09,0.95,10.2,M,34.2,M,,0000*6D
$GPGGA,055803.00,3435.44513,N,13530.76771,E,2,09,0.95,10.2,M,34.2,M,,0000*65
$GPGGA,055804.00,3435.44494,N,13530.76730,E,2,09,0.95,10.1,M,34.2,M,,0000*6A
$GPGGA,055805.00,3435.44474,N,13530.76690,E,2,09,0.95,10.2,M,34.2,M,,0000*6D
$GPGGA,055806.00,3435.44456,N,13530.76652,E,2,09,0.95,10.3,M,34.2,M,,0000*61
$GPGGA,055807.00,3435.44440,N,13530.76611,E,2,09,0.95,10.3,M,34.2,M,,0000*60
$GPGGA,055808.00,3435.44422,N,13530.76570,E,2,09,0.95,10.3,M,34.2,M,,0000*6F
$GPGGA,055809.00,3435.44407,N,13530.76538,E,2,09,0.95,10.3,M,34.2,M,,0000*65
$GPGGA,055810.00,3435.44393,N,13530.76527,E,2,09,0.95,10.3,M,34.2,M,,0000*69
$GPGGA,055811.00,3435.44371,N,13530.76525,E,2,09,0.95,10.2,M,34.2,M,,0000*67
$GPGGA,055812.00,3435.44350,N,13530.76541,E,2,09,0.95,10.2,M,34.2,M,,0000*65
$GPGGA,055813.00,3435.44322,N,13530.76565,E,2,09,0.95,10.2,M,34.2,M,,0000*67
$GPGGA,055814.00,3435.44288,N,13530.76588,E,2,09,0.95,10.3,M,34.2,M,,0000*63
$GPGGA,055815.00,3435.44255,N,13530.76610,E,2,09,0.95,10.4,M,34.2,M,,0000*67
$GPGGA,055816.00,3435.44224,N,13530.76636,E,2,09,0.95,10.4,M,34.2,M,,0000*66
$GPGGA,055817.00,3435.44196,N,13530.76657,E,2,09,0.95,10.4,M,34.2,M,,0000*6A
$GPGGA,055818.00,3435.44167,N,13530.76683,E,2,09,0.95,10.4,M,34.2,M,,0000*62
$GPGGA,055819.00,3435.44137,N,13530.76711,E,2,09,0.95,10.5,M,34.2,M,,0000*6D
$GPGGA,055820.00,3435.44104,N,13530.76736,E,2,09,0.95,10.4,M,34.2,M,,0000*63
$GPGGA,055821.00,3435.44074,N,13530.76758,E,2,09,0.95,10.5,M,34.2,M,,0000*6D
$GPGGA,055822.00,3435.44041,N,13530.76785,E,2,09,0.95,10.5,M,34.2,M,,0000*68
$GPGGA,055823.00,3435.44004,N,13530.76813,E,2,09,0.95,10.5,M,34.2,M,,0000*68
$GPGGA,055824.00,3435.43970,N,13530.76837,E,2,09,0.95,10.5,M,34.2,M,,0000*64
$GPGGA,055825.00,3435.43934,N,13530.76865,E,2,09,0.95,10.5,M,34.2,M,,0000*62
$GPGGA,055826.00,3435.43896,N,13530.76894,E,2,09,0.95,10.5,M,34.2,M,,0000*66
$GPGGA,055827.00,3435.43859,N,13530.76924,E,2,09,0.95,10.6,M,34.2,M,,0000*6D
$GPGGA,055828.00,3435.43823,N,13530.76947,E,2,09,0.95,10.6,M,34.2,M,,0000*6A
$GPGGA,055829.00,3435.43791,N,13530.76969,E,2,09,0.95,10.7,M,34.2,M,,0000*60
$GPGGA,055830.00,3435.43771,N,13530.76986,E,2,09,0.95,10.7,M,34.2,M,,0000*67
$GPGGA,055831.00,3435.43760,N,13530.77021,E,2,09,0.95,10.6,M,34.2,M,,0000*62
$GPGGA,055832.00,3435.43778,N,13530.77056,E,2,09,0.95,10.9,M,34.2,M,,0000*67
$GPGGA,055833.00,3435.43794,N,13530.77098,E,2,09,0.95,10.9,M,34.2,M,,0000*66
$GPGGA,055834.00,3435.43812,N,13530.77144,E,2,09,0.95,10.9,M,34.2,M,,0000*60
$GPGGA,055835.00,3435.43835,N,13530.77187,E,2,09,0.95,10.9,M,34.2,M,,0000*6B
$GPGGA,055836.00,3435.43856,N,13530.77233,E,2,09,0.95,11.0,M,34.2,M,,0000*69
$GPGGA,055837.00,3435.43877,N,13530.77278,E,2,09,0.95,11.0,M,34.2,M,,0000*64
$GPGGA,055838.00,3435.43896,N,13530.77323,E,2,09,0.95,11.1,M,34.2,M,,0000*6A
$GPGGA,055839.00,3435.43919,N,13530.77366,E,2,09,0.95,11.1,M,34.2,M,,0000*6C
$GPGGA,055840.00,3435.43941,N,13530.77412,E,2,09,0.95,11.1,M,34.2,M,,0000*6B
$GPGGA,055841.00,3435.43961,N,13530.77455,E,2,09,0.95,11.2,M,34.2,M,,0000*68
$GPGGA,055842.00,3435.43984,N,13530.77500,E,2,09,0.95,11.3,M,34.2,M,,0000*60
$GPGGA,055843.00,3435.44006,N,13530.77544,E,2,09,1.04,11.4,M,34.2,M,,0000*6B
$GPGGA,055844.00,3435.44029,N,13530.77589,E,2,09,0.95,11.5,M,34.2,M,,0000*68
$GPGGA,055845.00,3435.44051,N,13530.77635,E,2,09,0.95,11.5,M,34.2,M,,0000*62
$GPGGA,055846.00,3435.44072,N,13530.77677,E,2,09,0.95,11.6,M,34.2,M,,0000*65
$GPGGA,055847.00,3435.44097,N,13530.77718,E,2,09,0.95,11.6,M,34.2,M,,0000*67
$GPGGA,055848.00,3435.44123,N,13530.77760,E,2,09,0.95,11.7,M,34.2,M,,0000*68
$GPGGA,055849.00,3435.44146,N,13530.77805,E,2,09,0.95,11.7,M,34.2,M,,0000*66
$GPGGA,055850.00,3435.44168,N,13530.77850,E,2,09,0.95,11.8,M,34.2,M,,0000*6D
$GPGGA,055851.00,3435.44193,N,13530.77894,E,2,09,0.95,11.8,M,34.2,M,,0000*60
$GPGGA,055852.00,3435.44219,N,13530.77943,E,2,09,0.95,12.0,M,34.2,M,,0000*62
$GPGGA,055853.00,3435.44240,N,13530.77993,E,2,09,0.95,12.0,M,34.2,M,,0000*62
$GPGGA,055854.00,3435.44259,N,13530.78039,E,2,09,0.95,12.1,M,34.2,M,,0000*6A
$GPGGA,055855.00,3435.44280,N,13530.78081,E,2,09,0.95,12.1,M,34.2,M,,0000*6C
$GPGGA,055856.00,3435.44303,N,13530.78125,E,2,09,0.95,12.2,M,34.2,M,,0000*69
$GPGGA,055857.00,3435.44324,N,13530.78169,E,2,09,0.95,12.1,M,34.2,M,,0000*66
$GPGGA,055858.00,3435.44346,N,13530.78213,E,2,09,0.95,12.2,M,34.2,M,,0000*60
$GPGGA,055859.00,3435.44369,N,13530.78254,E,2,09,1.18,12.2,M,34.2,M,,0000*6B
$GPGGA,055900.00,3435.44392,N,13530.78295,E,2,09,1.18,12.2,M,34.2,M,,0000*6F
$GPGGA,055901.00,3435.44414,N,13530.78334,E,2,09,1.18,12.2,M,34.2,M,,0000*6D
$GPGGA,055902.00,3435.44439,N,13530.78376,E,2,09,1.18,12.2,M,34.2,M,,0000*67
$GPGGA,055903.00,3435.44463,N,13530.78418,E,2,09,1.18,12.2,M,34.2,M,,0000*66
$GPGGA,055904.00,3435.44486,N,13530.78462,E,2,09,1.18,12.2,M,34.2,M,,0000*67
$GPGGA,055905.00,3435.44509,N,13530.78506,E,2,09,1.18,12.3,M,34.2,M,,0000*62
$GPGGA,055906.00,3435.44533,N,13530.78552,E,2,09,1.18,12.3,M,34.2,M,,0000*69
$GPGGA,055907.00,3435.44556,N,13530.78597,E,2,09,1.18,12.3,M,34.2,M,,0000*62
$GPGGA,055908.00,3435.44581,N,13530.78643,E,2,09,1.18,12.4,M,34.2,M,,0000*6A
$GPGGA,055909.00,3435.44605,N,13530.78689,E,2,09,1.18,12.4,M,34.2,M,,0000*62
$GPGGA,055910.00,3435.44628,N,13530.78733,E,2,09,1.18,12.5,M,34.2,M,,0000*64
$GPGGA,055911.00,3435.44652,N,13530.78778,E,2,09,1.18,12.5,M,34.2,M,,0000*67
$GPGGA,055912.00,3435.44678,N,13530.78824,E,2,09,1.18,12.5,M,34.2,M,,0000*6A
$GPGGA,055913.00,3435.44703,N,13530.78874,E,2,09,1.18,12.5,M,34.2,M,,0000*63
$GPGGA,055914.00,3435.44729,N,13530.78926,E,2,09,1.18,12.6,M,34.2,M,,0000*69
$GPGGA,055915.00,3435.44757,N,13530.78975,E,2,09,1.28,12.6,M,34.2,M,,0000*64
$GPGGA,055916.00,3435.44788,N,13530.79025,E,2,09,1.18,12.6,M,34.2,M,,0000*6B
$GPGGA,055917.00,3435.44815,N,13530.79074,E,2,09,1.18,12.7,M,34.2,M,,0000*64
$GPGGA,055918.00,3435.44841,N,13530.79121,E,2,09,1.18,12.7,M,34.2,M,,0000*6B
$GPGGA,055919.00,3435.44862,N,13530.79159,E,2,09,1.18,12.7,M,34.2,M,,0000*64
$GPGGA,055920.00,3435.44888,N,13530.79179,E,2,09,1.18,12.5,M,34.2,M,,0000*6A
$GPGGA,055921.00,3435.44925,N,13530.79176,E,2,09,1.18,12.3,M,34.2,M,,0000*64
$GPGGA,055922.00,3435.44956,N,13530.79163,E,2,09,1.18,12.5,M,34.2,M,,0000*61
$GPGGA,055923.00,3435.44990,N,13530.79143,E,2,09,1.18,12.6,M,34.2,M,,0000*6B
$GPGGA,055924.00,3435.45025,N,13530.79114,E,2,09,1.18,12.6,M,34.2,M,,0000*68
$GPGGA,055925.00,3435.45061,N,13530.79083,E,2,09,1.18,12.7,M,34.2,M,,0000*67
$GPGGA,055926.00,3435.45099,N,13530.79056,E,2,09,1.18,12.6,M,34.2,M,,0000*6A
$GPGGA,055927.00,3435.45137,N,13530.79030,E,2,09,1.18,12.7,M,34.2,M,,0000*6F
$GPGGA,055928.00,3435.45173,N,13530.79005,E,2,09,1.18,12.4,M,34.2,M,,0000*65
$GPGGA,055929.00,3435.45211,N,13530.78975,E,2,09,1.18,12.5,M,34.2,M,,0000*6D
$GPGGA,055930.00,3435.45249,N,13530.78946,E,2,09,1.18,12.4,M,34.2,M,,0000*69
$GPGGA,055931.00,3435.45284,N,13530.78918,E,2,09,1.18,12.5,M,34.2,M,,0000*63
$GPGGA,055932.00,3435.45319,N,13530.78888,E,2,09,1.18,12.7,M,34.2,M,,0000*6F
$GPGGA,055933.00,3435.45353,N,13530.78857,E,2,09,1.18,12.7,M,34.2,M,,0000*62
$GPGGA,055934.00,3435.45389,N,13530.78829,E,2,09,1.18,12.8,M,34.2,M,,0000*64
$GPGGA,055935.00,3435.45427,N,13530.78800,E,2,09,1.18,12.9,M,34.2,M,,0000*6C
$GPGGA,055936.00,3435.45465,N,13530.78774,E,2,09,1.17,12.8,M,34.2,M,,0000*6B
$GPGGA,055937.00,3435.45494,N,13530.78747,E,2,09,1.17,12.8,M,34.2,M,,0000*64
$GPGGA,055938.00,3435.45506,N,13530.78714,E,2,09,1.17,12.7,M,34.2,M,,0000*68
$GPGGA,055939.00,3435.45503,N,13530.78676,E,2,09,1.17,12.5,M,34.2,M,,0000*6B
$GPGGA,055940.00,3435.45489,N,13530.78637,E,2,09,1.17,12.4,M,34.2,M,,0000*62
$GPGGA,055941.00,3435.45470,N,13530.78591,E,2,09,1.17,12.3,M,34.2,M,,0000*6D
$GPGGA,055942.00,3435.45449,N,13530.78544,E,2,09,1.17,12.3,M,34.2,M,,0000*6C
$GPGGA,055943.00,3435.45426,N,13530.78496,E,2,09,1.17,12.3,M,34.2,M,,0000*6A
$GPGGA,055944.00,3435.45407,N,13530.78452,E,2,09,1.17,12.2,M,34.2,M,,0000*67
$GPGGA,055945.00,3435.45382,N,13530.78409,E,2,09,1.17,12.1,M,34.2,M,,0000*61
$GPGGA,055946.00,3435.45356,N,13530.78366,E,2,09,1.17,12.0,M,34.2,M,,0000*64
$GPGGA,055947.00,3435.45333,N,13530.78316,E,2,09,1.17,11.9,M,34.2,M,,0000*6B
$GPGGA,055948.00,3435.45312,N,13530.78270,E,2,09,1.17,11.8,M,34.2,M,,0000*67
$GPGGA,055949.00,3435.45288,N,13530.78225,E,2,09,1.17,11.7,M,34.2,M,,0000*6B
$GPGGA,055950.00,3435.45266,N,13530.78178,E,2,09,1.17,11.6,M,34.2,M,,0000*69
$GPGGA,055951.00,3435.45245,N,13530.78130,E,2,09,1.17,11.6,M,34.2,M,,0000*65
$GPGGA,055952.00,3435.45222,N,13530.78081,E,2,09,1.17,11.6,M,34.2,M,,0000*6C
$GPGGA,055953.00,3435.45200,N,13530.78031,E,2,09,1.17,11.6,M,34.2,M,,0000*66
$GPGGA,055954.00,3435.45174,N,13530.77983,E,2,09,1.17,11.6,M,34.2,M,,0000*6E
$GPGGA,055955.00,3435.45148,N,13530.77937,E,2,09,1.17,11.5,M,34.2,M,,0000*6C
$GPGGA,055956.00,3435.45124,N,13530.77886,E,2,09,1.17,11.5,M,34.2,M,,0000*6E
$GPGGA,055957.00,3435.45101,N,13530.77840,E,2,09,1.17,11.6,M,34.2,M,,0000*61
$GPGGA,055958.00,3435.45079,N,13530.77791,E,2,09,1.17,11.5,M,34.2,M,,0000*60
$GPGGA,055959.00,3435.45057,N,13530.77742,E,2,09,1.17,11.4,M,34.2,M,,0000*62
$GPGGA,060000.00,3435.45027,N,13530.77691,E,2,09,1.17,11.4,M,34.2,M,,0000*69
$GPGGA,060001.00,3435.45000,N,13530.77644,E,2,09,1.17,11.5,M,34.2,M,,0000*64
$GPGGA,060002.00,3435.44975,N,13530.77601,E,2,09,1.17,11.5,M,34.2,M,,0000*6C
$GPGGA,060003.00,3435.44954,N,13530.77562,E,2,09,1.17,11.6,M,34.2,M,,0000*6B
$GPGGA,060004.00,3435.44933,N,13530.77518,E,2,09,1.17,11.6,M,34.2,M,,0000*60
$GPGGA,060005.00,3435.44908,N,13530.77470,E,2,09,1.17,11.6,M,34.2,M,,0000*66
$GPGGA,060006.00,3435.44886,N,13530.77431,E,2,09,1.17,11.7,M,34.2,M,,0000*66
$GPGGA,060007.00,3435.44866,N,13530.77399,E,2,09,1.17,11.8,M,34.2,M,,0000*63
$GPGGA,060008.00,3435.44844,N,13530.77356,E,2,09,1.17,11.8,M,34.2,M,,0000*6F
$GPGGA,060009.00,3435.44832,N,13530.77326,E,2,09,1.17,11.8,M,34.2,M,,0000*68
$GPGGA,060010.00,3435.44828,N,13530.77319,E,2,09,1.17,11.7,M,34.2,M,,0000*68
$GPGGA,060011.00,3435.44826,N,13530.77316,E,2,09,1.17,11.6,M,34.2,M,,0000*69
